[
{
"icao": "AGAF",
"iata": "AFT",
"name": "Afutara Aerodrome",
"city": "Bila",
"country": "Solomon Islands",
"latitude": -9.19139,
"longitude": 160.94861
},
{
"icao": "AGAR",
"iata": "RNA",
"name": "Ulawa Airport",
"city": "Arona",
"country": "Solomon Islands",
"latitude": -9.86054,
"longitude": 161.97955
},
{
"icao": "AGAT",
"iata": "ATD",
"name": "Uru Harbour Airport",
"city": "Atoifi",
"country": "Solomon Islands",
"latitude": -8.87333,
"longitude": 161.011
},
{
"icao": "AGBA",
"iata": "VEV",
"name": "Barakoma Airport",
"city": "Barakoma",
"country": "Solomon Islands",
"latitude": -7.91278,
"longitude": 156.70599
},
{
"icao": "AGBT",
"iata": "BPF",
"name": "Batuna Aerodrome",
"city": "Batuna Mission Station",
"country": "Solomon Islands",
"latitude": -8.56203,
"longitude": 158.11931
},
{
"icao": "AGEV",
"iata": "GEF",
"name": "Geva Airport",
"city": "Liangia",
"country": "Solomon Islands",
"latitude": -7.57583,
"longitude": 156.597
},
{
"icao": "AGGA",
"iata": "AKS",
"name": "Auki Airport",
"city": "Auki",
"country": "Solomon Islands",
"latitude": -8.70257,
"longitude": 160.68201
},
{
"icao": "AGGB",
"iata": "BNY",
"name": "Bellona/Anua Airport",
"city": "Anua",
"country": "Solomon Islands",
"latitude": -11.30222,
"longitude": 159.79833
},
{
"icao": "AGGC",
"iata": "CHY",
"name": "Choiseul Bay Airport",
"city": "Choiseul",
"country": "Solomon Islands",
"latitude": -6.71194,
"longitude": 156.39611
},
{
"icao": "AGGE",
"iata": "BAS",
"name": "Ballalae Airport",
"city": "Ballalae",
"country": "Solomon Islands",
"latitude": -6.99075,
"longitude": 155.88666
},
{
"icao": "AGGF",
"iata": "FRE",
"name": "Fera/Maringe Airport",
"city": "Fera Island",
"country": "Solomon Islands",
"latitude": -8.1075,
"longitude": 159.577
},
{
"icao": "AGGH",
"iata": "HIR",
"name": "Honiara International Airport",
"city": "Honiara",
"country": "Solomon Islands",
"latitude": -9.428,
"longitude": 160.05499
},
{
"icao": "AGGI",
"iata": "MBU",
"name": "Babanakira Airport",
"city": "Mbambanakira",
"country": "Solomon Islands",
"latitude": -9.7475,
"longitude": 159.839
},
{
"icao": "AGGJ",
"iata": "AVU",
"name": "Avu Avu Airport",
"city": "Guadalcanal",
"country": "Solomon Islands",
"latitude": -9.86833,
"longitude": 160.41056
},
{
"icao": "AGGK",
"iata": "IRA",
"name": "Ngorangora Airport",
"city": "Kirakira",
"country": "Solomon Islands",
"latitude": -10.4497,
"longitude": 161.89799
},
{
"icao": "AGGL",
"iata": "SCZ",
"name": "Santa Cruz/Graciosa Bay/Luova Airport",
"city": "Santa Cruz/Graciosa Bay/Luova",
"country": "Solomon Islands",
"latitude": -10.7203,
"longitude": 165.795
},
{
"icao": "AGGM",
"iata": "MUA",
"name": "Munda Airport",
"city": "Solomon Islands",
"country": "Solomon Islands",
"latitude": -8.32797,
"longitude": 157.263
},
{
"icao": "AGGN",
"iata": "GZO",
"name": "Nusatupe Airport",
"city": "Gizo",
"country": "Solomon Islands",
"latitude": -8.09778,
"longitude": 156.864
},
{
"icao": "AGGO",
"iata": "MNY",
"name": "Mono Airport",
"city": "Stirling Island",
"country": "Solomon Islands",
"latitude": -7.41694,
"longitude": 155.565
},
{
"icao": "AGGP",
"iata": "PRS",
"name": "Parasi Airport",
"city": "Parasi",
"country": "Solomon Islands",
"latitude": -9.64167,
"longitude": 161.425
},
{
"icao": "AGGR",
"iata": "RNL",
"name": "Rennell/Tingoa Airport",
"city": "Rennell Island",
"country": "Solomon Islands",
"latitude": -11.5339,
"longitude": 160.063
},
{
"icao": "AGGS",
"iata": "EGM",
"name": "Sege Airport",
"city": "Sege",
"country": "Solomon Islands",
"latitude": -8.57889,
"longitude": 157.87601
},
{
"icao": "AGGT",
"iata": "NNB",
"name": "Santa Ana Airport",
"city": "Santa Ana Island",
"country": "Solomon Islands",
"latitude": -10.84799,
"longitude": 162.45411
},
{
"icao": "AGGU",
"iata": "RUS",
"name": "Marau Airport",
"city": "Marau",
"country": "Solomon Islands",
"latitude": -9.86167,
"longitude": 160.825
},
{
"icao": "AGGV",
"iata": "VAO",
"name": "Suavanao Airport",
"city": "Suavanao",
"country": "Solomon Islands",
"latitude": -7.58556,
"longitude": 158.731
},
{
"icao": "AGGY",
"iata": "XYA",
"name": "Yandina Airport",
"city": "Yandina",
"country": "Solomon Islands",
"latitude": -9.09282,
"longitude": 159.21841
},
{
"icao": "AGKG",
"iata": "KGE",
"name": "Kagau Island Airport",
"city": "Kagau Island",
"country": "Solomon Islands",
"latitude": -7.333,
"longitude": 157.58299
},
{
"icao": "AGOK",
"iata": "GTA",
"name": "Gatokae Airport",
"city": "Gatokae",
"country": "Solomon Islands",
"latitude": -8.73917,
"longitude": 158.20306
},
{
"icao": "AGRC",
"iata": "RIN",
"name": "Ringi Cove Airport",
"city": "Ringi Cove",
"country": "Solomon Islands",
"latitude": -8.12639,
"longitude": 157.14301
},
{
"icao": "AGRM",
"iata": "RBV",
"name": "Ramata Airport",
"city": "Ramata",
"country": "Solomon Islands",
"latitude": -8.16806,
"longitude": 157.64301
},
{
"icao": "ANYN",
"iata": "INU",
"name": "Nauru International Airport",
"city": "Yaren District",
"country": "Nauru",
"latitude": -0.54746,
"longitude": 166.91901
},
{
"icao": "AYAF",
"iata": "AFR",
"name": "Afore Airstrip",
"city": "Afore",
"country": "Papua New Guinea",
"latitude": -9.14222,
"longitude": 148.39083
},
{
"icao": "AYAI",
"iata": "ATP",
"name": "Aitape Airport",
"city": "Aitape",
"country": "Papua New Guinea",
"latitude": -3.14361,
"longitude": 142.34681
},
{
"icao": "AYAM",
"iata": "AMU",
"name": "Amanab Airport",
"city": "Amanab",
"country": "Papua New Guinea",
"latitude": -3.586,
"longitude": 141.21433
},
{
"icao": "AYAN",
"iata": "ADC",
"name": "Andakombe Airport",
"city": "Andekombe",
"country": "Papua New Guinea",
"latitude": -7.13722,
"longitude": 145.74472
},
{
"icao": "AYAO",
"iata": "AIE",
"name": "Aiome Airport",
"city": "Aiome",
"country": "Papua New Guinea",
"latitude": -5.1457,
"longitude": 144.7307
},
{
"icao": "AYAQ",
"iata": "KPM",
"name": "Kompiam Airport",
"city": "Enga",
"country": "Papua New Guinea",
"latitude": -5.38167,
"longitude": 143.92472
},
{
"icao": "AYAT",
"iata": "AUJ",
"name": "Ambunti Airport",
"city": "Ambunti",
"country": "Papua New Guinea",
"latitude": -4.21567,
"longitude": 142.82317
},
{
"icao": "AYAW",
"iata": "AWB",
"name": "Awaba Airport",
"city": "Awaba",
"country": "Papua New Guinea",
"latitude": -8.00611,
"longitude": 142.74835
},
{
"icao": "AYAY",
"iata": "AYU",
"name": "Aiyura Airport",
"city": "Aiyura Valley",
"country": "Papua New Guinea",
"latitude": -6.33806,
"longitude": 145.90417
},
{
"icao": "AYBA",
"iata": "VMU",
"name": "Baimuru Airport",
"city": "Baimuru",
"country": "Papua New Guinea",
"latitude": -7.49686,
"longitude": 144.8199
},
{
"icao": "AYBG",
"iata": "BDZ",
"name": "Baindoung Airport",
"city": "Morobe",
"country": "Papua New Guinea",
"latitude": -6.34722,
"longitude": 146.94222
},
{
"icao": "AYBK",
"iata": "BUA",
"name": "Buka Airport",
"city": "Buka Island",
"country": "Papua New Guinea",
"latitude": -5.42232,
"longitude": 154.673
},
{
"icao": "AYBL",
"iata": "BAA",
"name": "Bialla Airport",
"city": "Bialla",
"country": "Papua New Guinea",
"latitude": -5.329445,
"longitude": 151.006128
},
{
"icao": "AYBM",
"iata": "OPU",
"name": "Balimo Airport",
"city": "Balimo",
"country": "Papua New Guinea",
"latitude": -8.05,
"longitude": 142.933
},
{
"icao": "AYBU",
"iata": "BUL",
"name": "Bulolo Airport",
"city": "Bulolo",
"country": "Papua New Guinea",
"latitude": -7.21629,
"longitude": 146.64954
},
{
"icao": "AYCG",
"iata": "CGC",
"name": "Cape Gloucester Airport",
"city": "Cape Gloucester",
"country": "Papua New Guinea",
"latitude": -5.455122,
"longitude": 148.423082
},
{
"icao": "AYCH",
"iata": "CMU",
"name": "Chimbu Airport",
"city": "Kundiawa",
"country": "Papua New Guinea",
"latitude": -6.02429,
"longitude": 144.97099
},
{
"icao": "AYDA",
"iata": "DAO",
"name": "Dahamo Airstrip",
"city": "Dabo",
"country": "Papua New Guinea",
"latitude": -5.753194,
"longitude": 141.993611
},
{
"icao": "AYDB",
"iata": "DBP",
"name": "Debepare Airport",
"city": "Debepare",
"country": "Papua New Guinea",
"latitude": -6.308611,
"longitude": 141.905556
},
{
"icao": "AYDE",
"iata": "DER",
"name": "Derim Airport",
"city": "Derim",
"country": "Papua New Guinea",
"latitude": -6.14472,
"longitude": 147.10722
},
{
"icao": "AYDU",
"iata": "DAU",
"name": "Daru Airport",
"city": "Daru",
"country": "Papua New Guinea",
"latitude": -9.08676,
"longitude": 143.20799
},
{
"icao": "AYED",
"iata": "XYR",
"name": "Edwaki Airport",
"city": "Yellow River Mission",
"country": "Papua New Guinea",
"latitude": -3.88399,
"longitude": 141.79223
},
{
"icao": "AYFA",
"iata": "FNE",
"name": "Fane Airport",
"city": "Fane Mission",
"country": "Papua New Guinea",
"latitude": -8.54928,
"longitude": 147.08583
},
{
"icao": "AYFI",
"iata": "FIN",
"name": "Finschhafen Airport",
"city": "Buki",
"country": "Papua New Guinea",
"latitude": -6.62175,
"longitude": 147.85405
},
{
"icao": "AYFR",
"iata": "FAQ",
"name": "Frieda River Airport",
"city": "Frieda River",
"country": "Papua New Guinea",
"latitude": -4.61047,
"longitude": 141.96014
},
{
"icao": "AYGA",
"iata": "GKA",
"name": "Goroka Airport",
"city": "Goronka",
"country": "Papua New Guinea",
"latitude": -6.08169,
"longitude": 145.392
},
{
"icao": "AYGG",
"iata": "GRL",
"name": "Garasa Airport",
"city": "Au",
"country": "Papua New Guinea",
"latitude": -7.98071,
"longitude": 147.21346
},
{
"icao": "AYGI",
"iata": "GAR",
"name": "Garaina Airport",
"city": "Garaina",
"country": "Papua New Guinea",
"latitude": -7.87563,
"longitude": 147.14127
},
{
"icao": "AYGN",
"iata": "GUR",
"name": "Gurney Airport",
"city": "Gurney",
"country": "Papua New Guinea",
"latitude": -10.3115,
"longitude": 150.334
},
{
"icao": "AYGP",
"iata": "GAP",
"name": "Gusap Airport",
"city": "Gusap",
"country": "Papua New Guinea",
"latitude": -6.0532,
"longitude": 145.95905
},
{
"icao": "AYGR",
"iata": "PNP",
"name": "Girua Airport",
"city": "Popondetta",
"country": "Papua New Guinea",
"latitude": -8.80454,
"longitude": 148.30901
},
{
"icao": "AYGT",
"iata": "GMI",
"name": "Gasmata Island Airport",
"city": "Gasmata Island",
"country": "Papua New Guinea",
"latitude": -6.27111,
"longitude": 150.33099
},
{
"icao": "AYGV",
"iata": "GVI",
"name": "Green River Airport",
"city": "Green River",
"country": "Papua New Guinea",
"latitude": -3.90224,
"longitude": 141.17052
},
{
"icao": "AYHK",
"iata": "HKN",
"name": "Kimbe Airport",
"city": "Hoskins",
"country": "Papua New Guinea",
"latitude": -5.46217,
"longitude": 150.405
},
{
"icao": "AYIQ",
"iata": "KIE",
"name": "Aropa Airport",
"city": "Kieta",
"country": "Papua New Guinea",
"latitude": -6.305,
"longitude": 155.72778
},
{
"icao": "AYKA",
"iata": "LSA",
"name": "Losuia Airport",
"city": "Losuia",
"country": "Papua New Guinea",
"latitude": -8.50582,
"longitude": 151.08099
},
{
"icao": "AYKB",
"iata": "KBM",
"name": "Kabwum",
"city": "Morobe",
"country": "Papua New Guinea",
"latitude": -6.15547,
"longitude": 147.19147
},
{
"icao": "AYKC",
"iata": "KDR",
"name": "Kandrian Airport",
"city": "Kandrian",
"country": "Papua New Guinea",
"latitude": -6.2659,
"longitude": 149.5581
},
{
"icao": "AYKI",
"iata": "UNG",
"name": "Kiunga Airport",
"city": "Kiunga",
"country": "Papua New Guinea",
"latitude": -6.12571,
"longitude": 141.282
},
{
"icao": "AYKK",
"iata": "KRI",
"name": "Kikori Airport",
"city": "Kikori",
"country": "Papua New Guinea",
"latitude": -7.42438,
"longitude": 144.25008
},
{
"icao": "AYKM",
"iata": "KMA",
"name": "Kerema Airport",
"city": "Kerema",
"country": "Papua New Guinea",
"latitude": -7.96361,
"longitude": 145.771
},
{
"icao": "AYKO",
"iata": "KKD",
"name": "Kokoda Airport",
"city": "Kokoda",
"country": "Papua New Guinea",
"latitude": -8.88468,
"longitude": 147.73096
},
{
"icao": "AYKT",
"iata": "KZF",
"name": "Kaintiba Airport",
"city": "Kaintiba",
"country": "Papua New Guinea",
"latitude": -7.50025,
"longitude": 146.03383
},
{
"icao": "AYKU",
"iata": "KUQ",
"name": "Kuri Airport",
"city": "Kuri",
"country": "Papua New Guinea",
"latitude": -7.13508,
"longitude": 143.27611
},
{
"icao": "AYKV",
"iata": "KVG",
"name": "Kavieng Airport",
"city": "Kavieng",
"country": "Papua New Guinea",
"latitude": -2.5794,
"longitude": 150.808
},
{
"icao": "AYKW",
"iata": "KWO",
"name": "Kawito Airport",
"city": "Kawito",
"country": "Papua New Guinea",
"latitude": -7.97701,
"longitude": 142.82358
},
{
"icao": "AYKY",
"iata": "LNV",
"name": "Londolovit Airport",
"city": "Londolovit",
"country": "Papua New Guinea",
"latitude": -3.04361,
"longitude": 152.629
},
{
"icao": "AYLM",
"iata": "LMY",
"name": "Lake Murray Airport",
"city": "Lake Murray",
"country": "Papua New Guinea",
"latitude": -7.00992,
"longitude": 141.494
},
{
"icao": "AYLO",
"iata": "LWI",
"name": "Lowai Airstrip",
"city": "Lowai",
"country": "Papua New Guinea",
"latitude": -6.3344,
"longitude": 146.6458
},
{
"icao": "AYLU",
"iata": "LMI",
"name": "Lumi Airport",
"city": "Lumi",
"country": "Papua New Guinea",
"latitude": -3.47684,
"longitude": 142.04129
},
{
"icao": "AYMC",
"iata": "MYX",
"name": "Menyamya Airport",
"city": "Menyamya",
"country": "Papua New Guinea",
"latitude": -7.21167,
"longitude": 146.01936
},
{
"icao": "AYMD",
"iata": "MAG",
"name": "Madang Airport",
"city": "Madang",
"country": "Papua New Guinea",
"latitude": -5.20708,
"longitude": 145.789
},
{
"icao": "AYMH",
"iata": "HGU",
"name": "Mount Hagen Kagamuga Airport",
"city": "Mount Hagen",
"country": "Papua New Guinea",
"latitude": -5.82679,
"longitude": 144.29601
},
{
"icao": "AYMI",
"iata": "MXK",
"name": "Mindik Airport",
"city": "Mindik",
"country": "Papua New Guinea",
"latitude": -6.47167,
"longitude": 147.44114
},
{
"icao": "AYML",
"iata": "GUV",
"name": "Mougulu Airport",
"city": "Mougulu",
"country": "Papua New Guinea",
"latitude": -6.28086,
"longitude": 142.42077
},
{
"icao": "AYMN",
"iata": "MDU",
"name": "Mendi Airport",
"city": "Southern Highlands",
"country": "Papua New Guinea",
"latitude": -6.14774,
"longitude": 143.657
},
{
"icao": "AYMO",
"iata": "MAS",
"name": "Momote Airport",
"city": "Manus",
"country": "Papua New Guinea",
"latitude": -2.06189,
"longitude": 147.424
},
{
"icao": "AYMR",
"iata": "MXH",
"name": "Moro Airport",
"city": "Moro",
"country": "Papua New Guinea",
"latitude": -6.36333,
"longitude": 143.23801
},
{
"icao": "AYMS",
"iata": "MIS",
"name": "Misima Island Airport",
"city": "Misima Island",
"country": "Papua New Guinea",
"latitude": -10.6892,
"longitude": 152.838
},
{
"icao": "AYNE",
"iata": "GBF",
"name": "Negarbo(Negabo) Airport",
"city": "Negarbo",
"country": "Papua New Guinea",
"latitude": -6.56778,
"longitude": 144.70306
},
{
"icao": "AYNG",
"iata": "MFO",
"name": "Manguna Airport",
"city": "Manguna",
"country": "Papua New Guinea",
"latitude": -5.57778,
"longitude": 151.79233
},
{
"icao": "AYNU",
"iata": "UKU",
"name": "Nuku Airport",
"city": "Nuku",
"country": "Papua New Guinea",
"latitude": -3.67665,
"longitude": 142.48433
},
{
"icao": "AYNZ",
"iata": "LAE",
"name": "Lae Nadzab Airport",
"city": "Nadzab",
"country": "Papua New Guinea",
"latitude": -6.56983,
"longitude": 146.726
},
{
"icao": "AYOG",
"iata": "OGE",
"name": "Ogeranang Airport",
"city": "Morobe",
"country": "Papua New Guinea",
"latitude": -6.46675,
"longitude": 147.36417
},
{
"icao": "AYOM",
"iata": "OSE",
"name": "Omora Airport",
"city": "Omora",
"country": "Papua New Guinea",
"latitude": -7.82778,
"longitude": 147.08064
},
{
"icao": "AYPD",
"iata": "PDI",
"name": "Pindiu Airport",
"city": "Pindiu",
"country": "Papua New Guinea",
"latitude": -6.44514,
"longitude": 147.51583
},
{
"icao": "AYPY",
"iata": "POM",
"name": "Port Moresby Jacksons International Airport",
"city": "Port Moresby",
"country": "Papua New Guinea",
"latitude": -9.44338,
"longitude": 147.22
},
{
"icao": "AYQA",
"iata": "KRJ",
"name": "Karawari Airstrip",
"city": "East Sepik",
"country": "Papua New Guinea",
"latitude": -4.59667,
"longitude": 143.5225
},
{
"icao": "AYRG",
"iata": "RMN",
"name": "Rumginae Airport",
"city": "Western Province",
"country": "Papua New Guinea",
"latitude": -5.89722,
"longitude": 141.27167
},
{
"icao": "AYRI",
"iata": "KMR",
"name": "Karimui Airport",
"city": "Karimui",
"country": "Papua New Guinea",
"latitude": -6.4921,
"longitude": 144.823
},
{
"icao": "AYSA",
"iata": "SBE",
"name": "Suabi Airport",
"city": "Western Province",
"country": "Papua New Guinea",
"latitude": -6.10444,
"longitude": 142.27833
},
{
"icao": "AYSE",
"iata": "NIS",
"name": "Simberi Airport",
"city": "Simberi Island",
"country": "Papua New Guinea",
"latitude": -2.66222,
"longitude": 151.99778
},
{
"icao": "AYSG",
"iata": "SIL",
"name": "Sila Airport",
"city": "Sila Mission",
"country": "Papua New Guinea",
"latitude": -9.07356,
"longitude": 148.38925
},
{
"icao": "AYSJ",
"iata": "SIM",
"name": "Simbai Airport",
"city": "Simbai",
"country": "Papua New Guinea",
"latitude": -5.27861,
"longitude": 144.54472
},
{
"icao": "AYSS",
"iata": "TDS",
"name": "Sasereme Airport",
"city": "Sasereme",
"country": "Papua New Guinea",
"latitude": -7.622778,
"longitude": 142.868889
},
{
"icao": "AYSU",
"iata": "SKC",
"name": "Suki Airport",
"city": "Suki",
"country": "Papua New Guinea",
"latitude": -8.0466,
"longitude": 141.7222
},
{
"icao": "AYTA",
"iata": "TIZ",
"name": "Tari Airport",
"city": "Tari",
"country": "Papua New Guinea",
"latitude": -5.845,
"longitude": 142.948
},
{
"icao": "AYTB",
"iata": "TBG",
"name": "Tabubil Airport",
"city": "Tabubil",
"country": "Papua New Guinea",
"latitude": -5.27861,
"longitude": 141.226
},
{
"icao": "AYTE",
"iata": "TFM",
"name": "Telefomin Airport",
"city": "Telefomin",
"country": "Papua New Guinea",
"latitude": -5.12608,
"longitude": 141.64192
},
{
"icao": "AYTI",
"iata": "TPI",
"name": "Tapini Airport",
"city": "Tapini",
"country": "Papua New Guinea",
"latitude": -8.35667,
"longitude": 146.98917
},
{
"icao": "AYTJ",
"iata": "TAJ",
"name": "Tadji Airport",
"city": "Aitape",
"country": "Papua New Guinea",
"latitude": -3.19819,
"longitude": 142.43096
},
{
"icao": "AYTK",
"iata": "RAB",
"name": "Tokua Airport",
"city": "Tokua",
"country": "Papua New Guinea",
"latitude": -4.34046,
"longitude": 152.38
},
{
"icao": "AYTN",
"iata": "TKW",
"name": "Tekin Airport",
"city": "Tekin",
"country": "Papua New Guinea",
"latitude": -5.24367,
"longitude": 142.16519
},
{
"icao": "AYTU",
"iata": "TFI",
"name": "Tufi Airport",
"city": "Tufi",
"country": "Papua New Guinea",
"latitude": -9.07595,
"longitude": 149.31984
},
{
"icao": "AYVN",
"iata": "VAI",
"name": "Vanimo Airport",
"city": "Sandaun",
"country": "Papua New Guinea",
"latitude": -2.69717,
"longitude": 141.302
},
{
"icao": "AYWB",
"iata": "WAO",
"name": "Wabo Airport",
"city": "Wabo",
"country": "Papua New Guinea",
"latitude": -6.98944,
"longitude": 145.07511
},
{
"icao": "AYWD",
"iata": "WBM",
"name": "Wapenamanda Airport",
"city": "Enga",
"country": "Papua New Guinea",
"latitude": -5.6433,
"longitude": 143.895
},
{
"icao": "AYWG",
"iata": "AGL",
"name": "Wanigela Airport",
"city": "Northern Province",
"country": "Papua New Guinea",
"latitude": -9.3375,
"longitude": 149.15556
},
{
"icao": "AYWK",
"iata": "WWK",
"name": "Wewak International Airport",
"city": "Wewak",
"country": "Papua New Guinea",
"latitude": -3.58383,
"longitude": 143.66901
},
{
"icao": "AYWO",
"iata": "WOA",
"name": "Wonenara Airport",
"city": "Wonenara",
"country": "Papua New Guinea",
"latitude": -6.79686,
"longitude": 145.89194
},
{
"icao": "AYWS",
"iata": "WSU",
"name": "Wasu Airport",
"city": "Wasu",
"country": "Papua New Guinea",
"latitude": -5.96171,
"longitude": 147.19823
},
{
"icao": "AYWT",
"iata": "WTP",
"name": "Woitape Airport",
"city": "Fatima Mission",
"country": "Papua New Guinea",
"latitude": -8.54583,
"longitude": 147.2525
},
{
"icao": "AYWU",
"iata": "WUG",
"name": "Wau Airport",
"city": "Wau",
"country": "Papua New Guinea",
"latitude": -7.34556,
"longitude": 146.71861
},
{
"icao": "BGAA",
"iata": "JEG",
"name": "Aasiaat Airport",
"city": "Aasiaat",
"country": "Greenland",
"latitude": 68.7218,
"longitude": -52.7847
},
{
"icao": "BGBW",
"iata": "UAK",
"name": "Narsarsuaq Airport",
"city": "Narsarsuaq",
"country": "Greenland",
"latitude": 61.1605,
"longitude": -45.426
},
{
"icao": "BGCO",
"iata": "CNP",
"name": "Neerlerit Inaat Airport",
"city": "Neerlerit Inaat",
"country": "Greenland",
"latitude": 70.7431,
"longitude": -22.6505
},
{
"icao": "BGGH",
"iata": "GOH",
"name": "Nuuk Airport",
"city": "Nuuk",
"country": "Greenland",
"latitude": 64.191,
"longitude": -51.678
},
{
"icao": "BGJN",
"iata": "JAV",
"name": "Ilulissat Airport",
"city": "Ilulissat",
"country": "Greenland",
"latitude": 69.2432,
"longitude": -51.0571
},
{
"icao": "BGKK",
"iata": "KUS",
"name": "Kulusuk Airport",
"city": "Kulusuk",
"country": "Greenland",
"latitude": 65.5736,
"longitude": -37.1236
},
{
"icao": "BGMQ",
"iata": "JSU",
"name": "Maniitsoq Airport",
"city": "Maniitsoq",
"country": "Greenland",
"latitude": 65.4125,
"longitude": -52.9394
},
{
"icao": "BGPT",
"iata": "JFR",
"name": "Paamiut Airport",
"city": "Paamiut",
"country": "Greenland",
"latitude": 62.01474,
"longitude": -49.67094
},
{
"icao": "BGQQ",
"iata": "NAQ",
"name": "Qaanaaq Airport",
"city": "Qaanaaq",
"country": "Greenland",
"latitude": 77.4886,
"longitude": -69.3887
},
{
"icao": "BGSF",
"iata": "SFJ",
"name": "Kangerlussuaq Airport",
"city": "Kangerlussuaq",
"country": "Greenland",
"latitude": 67.01222,
"longitude": -50.7116
},
{
"icao": "BGSS",
"iata": "JHS",
"name": "Sisimiut Airport",
"city": "Sisimiut",
"country": "Greenland",
"latitude": 66.9513,
"longitude": -53.7293
},
{
"icao": "BGTL",
"iata": "THU",
"name": "Thule Air Base",
"city": "Thule",
"country": "Greenland",
"latitude": 76.5312,
"longitude": -68.7032
},
{
"icao": "BGUK",
"iata": "JUV",
"name": "Upernavik Airport",
"city": "Upernavik",
"country": "Greenland",
"latitude": 72.7902,
"longitude": -56.1306
},
{
"icao": "BGUQ",
"iata": "JQA",
"name": "Qaarsut Airport",
"city": "Uummannaq",
"country": "Greenland",
"latitude": 70.7342,
"longitude": -52.6962
},
{
"icao": "BIAR",
"iata": "AEY",
"name": "Akureyri Airport",
"city": "Akureyri",
"country": "Iceland",
"latitude": 65.66,
"longitude": -18.0727
},
{
"icao": "BIBD",
"iata": "BIU",
"name": "Bíldudalur Airport",
"city": "Bíldudalur",
"country": "Iceland",
"latitude": 65.6413,
"longitude": -23.5462
},
{
"icao": "BIBF",
"iata": "BGJ",
"name": "Borgarfjordur eystri Airport",
"city": "Borgarfjordur eystri",
"country": "Iceland",
"latitude": 65.5164,
"longitude": -13.805
},
{
"icao": "BIBK",
"iata": "BJD",
"name": "Bakkafjordur Airport",
"city": "Bakkafjordur",
"country": "Iceland",
"latitude": 66.0219,
"longitude": -14.8244
},
{
"icao": "BIBL",
"iata": "BLO",
"name": "Hjaltabakki Airport",
"city": "Blönduós",
"country": "Iceland",
"latitude": 65.645,
"longitude": -20.2875
},
{
"icao": "BIBV",
"iata": "BXV",
"name": "Breiðdalsvík Airport",
"city": "Breiðdalsvík",
"country": "Iceland",
"latitude": 64.79,
"longitude": -14.0228
},
{
"icao": "BIDV",
"iata": "DJU",
"name": "Djúpivogur Airport",
"city": "Djúpivogur",
"country": "Iceland",
"latitude": 64.6442,
"longitude": -14.2828
},
{
"icao": "BIEG",
"iata": "EGS",
"name": "Egilsstaðir Airport",
"city": "Egilsstaðir",
"country": "Iceland",
"latitude": 65.2833,
"longitude": -14.4014
},
{
"icao": "BIFM",
"iata": "FAG",
"name": "Fagurhólsmýri Airport",
"city": "Fagurhólsmýri",
"country": "Iceland",
"latitude": 63.8747,
"longitude": -16.6411
},
{
"icao": "BIGF",
"iata": "GUU",
"name": "Grundarfjörður Airport",
"city": "Grundarfjörður",
"country": "Iceland",
"latitude": 64.9914,
"longitude": -23.2247
},
{
"icao": "BIGJ",
"iata": "GJR",
"name": "Gjögur Airport",
"city": "Gjögur",
"country": "Iceland",
"latitude": 65.9953,
"longitude": -21.3269
},
{
"icao": "BIGR",
"iata": "GRY",
"name": "Grímsey Airport",
"city": "Grímsey",
"country": "Iceland",
"latitude": 66.5458,
"longitude": -18.0173
},
{
"icao": "BIHK",
"iata": "HVK",
"name": "Hólmavík Airport",
"city": "Hólmavík",
"country": "Iceland",
"latitude": 65.7047,
"longitude": -21.6964
},
{
"icao": "BIHN",
"iata": "HFN",
"name": "Hornafjörðu Airport",
"city": "Höfn",
"country": "Iceland",
"latitude": 64.2956,
"longitude": -15.2272
},
{
"icao": "BIHT",
"iata": "FLI",
"name": "Holt Airport",
"city": "Flateyri",
"country": "Iceland",
"latitude": 66.01418,
"longitude": -23.44169
},
{
"icao": "BIHU",
"iata": "HZK",
"name": "Húsavík Airport",
"city": "Húsavík",
"country": "Iceland",
"latitude": 65.9523,
"longitude": -17.426
},
{
"icao": "BIIS",
"iata": "IFJ",
"name": "Ísafjörður Airport",
"city": "Ísafjörður",
"country": "Iceland",
"latitude": 66.0581,
"longitude": -23.1353
},
{
"icao": "BIKF",
"iata": "KEF",
"name": "Keflavik International Airport",
"city": "Reykjavik",
"country": "Iceland",
"latitude": 63.985,
"longitude": -22.6056
},
{
"icao": "BIKP",
"iata": "OPA",
"name": "Kópasker Airport",
"city": "Kópasker",
"country": "Iceland",
"latitude": 66.3108,
"longitude": -16.4667
},
{
"icao": "BIKR",
"iata": "SAK",
"name": "Sauðárkrókur Airport",
"city": "Sauðárkrókur",
"country": "Iceland",
"latitude": 65.7317,
"longitude": -19.5728
},
{
"icao": "BINF",
"iata": "NOR",
"name": "Norðfjörður Airport",
"city": "Norðfjörður",
"country": "Iceland",
"latitude": 65.1319,
"longitude": -13.7464
},
{
"icao": "BIOF",
"iata": "OFJ",
"name": "Ólafsfjörður Airport",
"city": "Ólafsfjörður",
"country": "Iceland",
"latitude": 66.0833,
"longitude": -18.6667
},
{
"icao": "BIRE",
"iata": "RHA",
"name": "Reykholar Airport",
"city": "Reykholar",
"country": "Iceland",
"latitude": 65.45263,
"longitude": -22.20612
},
{
"icao": "BIRF",
"iata": "OLI",
"name": "Rif Airport",
"city": "Rif",
"country": "Iceland",
"latitude": 64.9114,
"longitude": -23.8231
},
{
"icao": "BIRG",
"iata": "RFN",
"name": "Raufarhöfn Airport",
"city": "Raufarhöfn",
"country": "Iceland",
"latitude": 66.4064,
"longitude": -15.9183
},
{
"icao": "BIRK",
"iata": "RKV",
"name": "Reykjavik Airport",
"city": "Reykjavik",
"country": "Iceland",
"latitude": 64.13,
"longitude": -21.9406
},
{
"icao": "BIRL",
"iata": "MVA",
"name": "Mývatn Airport",
"city": "Reykjahlíð",
"country": "Iceland",
"latitude": 65.6558,
"longitude": -16.9181
},
{
"icao": "BISI",
"iata": "SIJ",
"name": "Siglufjörður Airport",
"city": "Siglufjörður",
"country": "Iceland",
"latitude": 66.1333,
"longitude": -18.9167
},
{
"icao": "BIST",
"iata": "SYK",
"name": "Stykkishólmur Airport",
"city": "Stykkishólmur",
"country": "Iceland",
"latitude": 65.0581,
"longitude": -22.7942
},
{
"icao": "BITE",
"iata": "TEY",
"name": "Þingeyri (Thingeyri) Airport",
"city": "Þingeyri",
"country": "Iceland",
"latitude": 65.8703,
"longitude": -23.56
},
{
"icao": "BITN",
"iata": "THO",
"name": "Þórshöfn (Thorshofn) Airport",
"city": "Þórshöfn",
"country": "Iceland",
"latitude": 66.2185,
"longitude": -15.3356
},
{
"icao": "BIVM",
"iata": "VEY",
"name": "Vestmannaeyjar Airport",
"city": "Vestmannaeyjar",
"country": "Iceland",
"latitude": 63.4243,
"longitude": -20.2789
},
{
"icao": "BIVO",
"iata": "VPN",
"name": "Vopnafjörður Airport",
"city": "Vopnafjörður",
"country": "Iceland",
"latitude": 65.7206,
"longitude": -14.8506
},
{
"icao": "BKPR",
"iata": "PRN",
"name": "Pristina International Airport",
"city": "Lipjan",
"country": "XK",
"latitude": 42.57283,
"longitude": 21.03583
},
{
"icao": "CBBC",
"iata": "ZEL",
"name": "Bella Bella (Campbell Island) Airport",
"city": "Bella Bella",
"country": "Canada",
"latitude": 52.185,
"longitude": -128.157
},
{
"icao": "CYAB",
"iata": "YAB",
"name": "Arctic Bay Airport",
"city": "Nunavut",
"country": "Canada",
"latitude": 73.00577,
"longitude": -85.04251
},
{
"icao": "CYAC",
"iata": "YAC",
"name": "Cat Lake Airport",
"city": "Cat Lake",
"country": "Canada",
"latitude": 51.7272,
"longitude": -91.8244
},
{
"icao": "CYAD",
"iata": "YAR",
"name": "La Grande-3 Airport",
"city": "La Grande-3",
"country": "Canada",
"latitude": 53.5717,
"longitude": -76.1964
},
{
"icao": "CYAG",
"iata": "YAG",
"name": "Fort Frances Municipal Airport",
"city": "Fort Frances",
"country": "Canada",
"latitude": 48.6542,
"longitude": -93.4397
},
{
"icao": "CYAH",
"iata": "YAH",
"name": "La Grande-4 Airport",
"city": "La Grande-4",
"country": "Canada",
"latitude": 53.7547,
"longitude": -73.6753
},
{
"icao": "CYAL",
"iata": "YAL",
"name": "Alert Bay Airport",
"city": "Alert Bay",
"country": "Canada",
"latitude": 50.5822,
"longitude": -126.916
},
{
"icao": "CYAM",
"iata": "YAM",
"name": "Sault Ste Marie Airport",
"city": "Sault Sainte Marie",
"country": "Canada",
"latitude": 46.485,
"longitude": -84.5094
},
{
"icao": "CYAQ",
"iata": "XKS",
"name": "Kasabonika Airport",
"city": "Kasabonika",
"country": "Canada",
"latitude": 53.5247,
"longitude": -88.6428
},
{
"icao": "CYAS",
"iata": "YKG",
"name": "Kangirsuk Airport",
"city": "Kangirsuk",
"country": "Canada",
"latitude": 60.0272,
"longitude": -69.9992
},
{
"icao": "CYAT",
"iata": "YAT",
"name": "Attawapiskat Airport",
"city": "Attawapiskat",
"country": "Canada",
"latitude": 52.9275,
"longitude": -82.4319
},
{
"icao": "CYAY",
"iata": "YAY",
"name": "St. Anthony Airport",
"city": "St. Anthony",
"country": "Canada",
"latitude": 51.3919,
"longitude": -56.0831
},
{
"icao": "CYAZ",
"iata": "YAZ",
"name": "Tofino / Long Beach Airport",
"city": "Tofino",
"country": "Canada",
"latitude": 49.07983,
"longitude": -125.7756
},
{
"icao": "CYBA",
"iata": "YBA",
"name": "Banff Airport",
"city": "Banff",
"country": "Canada",
"latitude": 51.20734,
"longitude": -115.54186
},
{
"icao": "CYBB",
"iata": "YBB",
"name": "Kugaaruk Airport",
"city": "Kugaaruk",
"country": "Canada",
"latitude": 68.5344,
"longitude": -89.8081
},
{
"icao": "CYBC",
"iata": "YBC",
"name": "Baie Comeau Airport",
"city": "Baie-Comeau",
"country": "Canada",
"latitude": 49.1325,
"longitude": -68.2044
},
{
"icao": "CYBD",
"iata": "QBC",
"name": "Bella Coola Airport",
"city": "Bella Coola",
"country": "Canada",
"latitude": 52.3875,
"longitude": -126.596
},
{
"icao": "CYBE",
"iata": "YBE",
"name": "Uranium City Airport",
"city": "Uranium City",
"country": "Canada",
"latitude": 59.5614,
"longitude": -108.481
},
{
"icao": "CYBF",
"iata": "YBY",
"name": "Bonnyville Airport",
"city": "Bonnyville",
"country": "Canada",
"latitude": 54.3042,
"longitude": -110.744
},
{
"icao": "CYBG",
"iata": "YBG",
"name": "CFB Bagotville",
"city": "Bagotville",
"country": "Canada",
"latitude": 48.3306,
"longitude": -70.9964
},
{
"icao": "CYBK",
"iata": "YBK",
"name": "Baker Lake Airport",
"city": "Baker Lake",
"country": "Canada",
"latitude": 64.2989,
"longitude": -96.0778
},
{
"icao": "CYBL",
"iata": "YBL",
"name": "Campbell River Airport",
"city": "Campbell River",
"country": "Canada",
"latitude": 49.9508,
"longitude": -125.271
},
{
"icao": "CYBQ",
"iata": "XTL",
"name": "Tadoule Lake Airport",
"city": "Tadoule Lake",
"country": "Canada",
"latitude": 58.7061,
"longitude": -98.5122
},
{
"icao": "CYBR",
"iata": "YBR",
"name": "Brandon Municipal Airport",
"city": "Brandon",
"country": "Canada",
"latitude": 49.91,
"longitude": -99.9519
},
{
"icao": "CYBT",
"iata": "YBT",
"name": "Brochet Airport",
"city": "Brochet",
"country": "Canada",
"latitude": 57.8894,
"longitude": -101.679
},
{
"icao": "CYBV",
"iata": "YBV",
"name": "Berens River Airport",
"city": "Berens River",
"country": "Canada",
"latitude": 52.3589,
"longitude": -97.0183
},
{
"icao": "CYBX",
"iata": "YBX",
"name": "Lourdes de Blanc Sablon Airport",
"city": "Lourdes-De-Blanc-Sablon",
"country": "Canada",
"latitude": 51.4436,
"longitude": -57.1853
},
{
"icao": "CYCA",
"iata": "YRF",
"name": "Cartwright Airport",
"city": "Cartwright",
"country": "Canada",
"latitude": 53.6828,
"longitude": -57.0419
},
{
"icao": "CYCB",
"iata": "YCB",
"name": "Cambridge Bay Airport",
"city": "Cambridge Bay",
"country": "Canada",
"latitude": 69.1081,
"longitude": -105.138
},
{
"icao": "CYCC",
"iata": "YCC",
"name": "Cornwall Regional Airport",
"city": "Cornwall",
"country": "Canada",
"latitude": 45.0928,
"longitude": -74.5633
},
{
"icao": "CYCD",
"iata": "YCD",
"name": "Nanaimo Airport",
"city": "Nanaimo",
"country": "Canada",
"latitude": 49.0523,
"longitude": -123.87
},
{
"icao": "CYCE",
"iata": "YCE",
"name": "James T. Field Memorial Aerodrome",
"city": "Centralia",
"country": "Canada",
"latitude": 43.2856,
"longitude": -81.5083
},
{
"icao": "CYCG",
"iata": "YCG",
"name": "Castlegar Airport",
"city": "Castlegar",
"country": "Canada",
"latitude": 49.2964,
"longitude": -117.632
},
{
"icao": "CYCH",
"iata": "YCH",
"name": "Miramichi Airport",
"city": "Miramichi",
"country": "Canada",
"latitude": 47.0078,
"longitude": -65.4492
},
{
"icao": "CYCK",
"iata": "XCM",
"name": "Chatham Kent Airport",
"city": "Chatham-Kent",
"country": "Canada",
"latitude": 42.3064,
"longitude": -82.0819
},
{
"icao": "CYCL",
"iata": "YCL",
"name": "Charlo Airport",
"city": "Charlo",
"country": "Canada",
"latitude": 47.9908,
"longitude": -66.3303
},
{
"icao": "CYCN",
"iata": "YCN",
"name": "Cochrane Airport",
"city": "Cochrane",
"country": "Canada",
"latitude": 49.1056,
"longitude": -81.0136
},
{
"icao": "CYCO",
"iata": "YCO",
"name": "Kugluktuk Airport",
"city": "Kugluktuk",
"country": "Canada",
"latitude": 67.8167,
"longitude": -115.144
},
{
"icao": "CYCQ",
"iata": "YCQ",
"name": "Chetwynd Airport",
"city": "Chetwynd",
"country": "Canada",
"latitude": 55.6872,
"longitude": -121.627
},
{
"icao": "CYCR",
"iata": "YCR",
"name": "Cross Lake (Charlie Sinclair Memorial) Airport",
"city": "Cross Lake",
"country": "Canada",
"latitude": 54.6106,
"longitude": -97.7608
},
{
"icao": "CYCS",
"iata": "YCS",
"name": "Chesterfield Inlet Airport",
"city": "Chesterfield Inlet",
"country": "Canada",
"latitude": 63.3469,
"longitude": -90.7311
},
{
"icao": "CYCT",
"iata": "YCT",
"name": "Coronation Airport",
"city": "Coronation",
"country": "Canada",
"latitude": 52.075,
"longitude": -111.445
},
{
"icao": "CYCW",
"iata": "YCW",
"name": "Chilliwack Airport",
"city": "Chilliwack",
"country": "Canada",
"latitude": 49.1528,
"longitude": -121.939
},
{
"icao": "CYCY",
"iata": "YCY",
"name": "Clyde River Airport",
"city": "Clyde River",
"country": "Canada",
"latitude": 70.4861,
"longitude": -68.5167
},
{
"icao": "CYCZ",
"iata": "YCZ",
"name": "Fairmont Hot Springs Airport",
"city": "Fairmont Hot Springs",
"country": "Canada",
"latitude": 50.3303,
"longitude": -115.873
},
{
"icao": "CYDA",
"iata": "YDA",
"name": "Dawson City Airport",
"city": "Dawson City",
"country": "Canada",
"latitude": 64.0431,
"longitude": -139.12801
},
{
"icao": "CYDB",
"iata": "YDB",
"name": "Burwash Airport",
"city": "Burwash",
"country": "Canada",
"latitude": 61.3711,
"longitude": -139.041
},
{
"icao": "CYDF",
"iata": "YDF",
"name": "Deer Lake Airport",
"city": "Deer Lake",
"country": "Canada",
"latitude": 49.2108,
"longitude": -57.3914
},
{
"icao": "CYDL",
"iata": "YDL",
"name": "Dease Lake Airport",
"city": "Dease Lake",
"country": "Canada",
"latitude": 58.4222,
"longitude": -130.032
},
{
"icao": "CYDM",
"iata": "XRR",
"name": "Ross River Airport",
"city": "Ross River",
"country": "Canada",
"latitude": 61.9706,
"longitude": -132.423
},
{
"icao": "CYDN",
"iata": "YDN",
"name": "Dauphin Barker Airport",
"city": "Dauphin",
"country": "Canada",
"latitude": 51.1008,
"longitude": -100.052
},
{
"icao": "CYDO",
"iata": "YDO",
"name": "Dolbeau Lac-Saint-Jean Airport",
"city": "Saint-Félicien",
"country": "Canada",
"latitude": 48.7785,
"longitude": -72.375
},
{
"icao": "CYDP",
"iata": "YDP",
"name": "Nain Airport",
"city": "Nain",
"country": "Canada",
"latitude": 56.5492,
"longitude": -61.6803
},
{
"icao": "CYDQ",
"iata": "YDQ",
"name": "Dawson Creek Airport",
"city": "Dawson Creek",
"country": "Canada",
"latitude": 55.7423,
"longitude": -120.183
},
{
"icao": "CYEG",
"iata": "YEG",
"name": "Edmonton International Airport",
"city": "Edmonton",
"country": "Canada",
"latitude": 53.3097,
"longitude": -113.58
},
{
"icao": "CYEK",
"iata": "YEK",
"name": "Arviat Airport",
"city": "Arviat",
"country": "Canada",
"latitude": 61.0942,
"longitude": -94.0708
},
{
"icao": "CYEL",
"iata": "YEL",
"name": "Elliot Lake Municipal Airport",
"city": "Elliot Lake",
"country": "Canada",
"latitude": 46.3514,
"longitude": -82.5614
},
{
"icao": "CYEM",
"iata": "YEM",
"name": "Manitoulin East Municipal Airport",
"city": "Manitowaning",
"country": "Canada",
"latitude": 45.8428,
"longitude": -81.8581
},
{
"icao": "CYEN",
"iata": "YEN",
"name": "Estevan Airport",
"city": "Estevan",
"country": "Canada",
"latitude": 49.2103,
"longitude": -102.966
},
{
"icao": "CYER",
"iata": "YER",
"name": "Fort Severn Airport",
"city": "Fort Severn",
"country": "Canada",
"latitude": 56.0189,
"longitude": -87.6761
},
{
"icao": "CYET",
"iata": "YET",
"name": "Edson Airport",
"city": "Edson",
"country": "Canada",
"latitude": 53.5789,
"longitude": -116.465
},
{
"icao": "CYEU",
"iata": "YEU",
"name": "Eureka Airport",
"city": "Eureka",
"country": "Canada",
"latitude": 79.9947,
"longitude": -85.8142
},
{
"icao": "CYEV",
"iata": "YEV",
"name": "Inuvik (Mike Zubko) Airport",
"city": "Inuvik",
"country": "Canada",
"latitude": 68.3042,
"longitude": -133.483
},
{
"icao": "CYEY",
"iata": "YEY",
"name": "Amos Magny Airport",
"city": "Amos",
"country": "Canada",
"latitude": 48.5639,
"longitude": -78.2497
},
{
"icao": "CYFA",
"iata": "YFA",
"name": "Fort Albany Airport",
"city": "Fort Albany",
"country": "Canada",
"latitude": 52.2014,
"longitude": -81.6969
},
{
"icao": "CYFB",
"iata": "YFB",
"name": "Iqaluit Airport",
"city": "Iqaluit",
"country": "Canada",
"latitude": 63.7564,
"longitude": -68.5558
},
{
"icao": "CYFC",
"iata": "YFC",
"name": "Fredericton International Airport",
"city": "Fredericton",
"country": "Canada",
"latitude": 45.8689,
"longitude": -66.5372
},
{
"icao": "CYFE",
"iata": "YFE",
"name": "Forestville Airport",
"city": "Forestville",
"country": "Canada",
"latitude": 48.7461,
"longitude": -69.0972
},
{
"icao": "CYFH",
"iata": "YFH",
"name": "Fort Hope Airport",
"city": "Fort Hope",
"country": "Canada",
"latitude": 51.5619,
"longitude": -87.9078
},
{
"icao": "CYFJ",
"iata": "YTM",
"name": "La Macaza / Mont-Tremblant International Inc Airport",
"city": "Riviere Rouge",
"country": "Canada",
"latitude": 46.4094,
"longitude": -74.78
},
{
"icao": "CYFO",
"iata": "YFO",
"name": "Flin Flon Airport",
"city": "Flin Flon",
"country": "Canada",
"latitude": 54.6781,
"longitude": -101.682
},
{
"icao": "CYFR",
"iata": "YFR",
"name": "Fort Resolution Airport",
"city": "Fort Resolution",
"country": "Canada",
"latitude": 61.1808,
"longitude": -113.69
},
{
"icao": "CYFS",
"iata": "YFS",
"name": "Fort Simpson Airport",
"city": "Fort Simpson",
"country": "Canada",
"latitude": 61.7602,
"longitude": -121.237
},
{
"icao": "CYFT",
"iata": "YMN",
"name": "Makkovik Airport",
"city": "Makkovik",
"country": "Canada",
"latitude": 55.0769,
"longitude": -59.1864
},
{
"icao": "CYGB",
"iata": "YGB",
"name": "Texada Gillies Bay Airport",
"city": "Texada",
"country": "Canada",
"latitude": 49.6942,
"longitude": -124.518
},
{
"icao": "CYGH",
"iata": "YGH",
"name": "Fort Good Hope Airport",
"city": "Fort Good Hope",
"country": "Canada",
"latitude": 66.2408,
"longitude": -128.651
},
{
"icao": "CYGK",
"iata": "YGK",
"name": "Kingston Airport",
"city": "Kingston",
"country": "Canada",
"latitude": 44.2253,
"longitude": -76.5969
},
{
"icao": "CYGL",
"iata": "YGL",
"name": "La Grande Riviere Airport",
"city": "Radisson",
"country": "Canada",
"latitude": 53.6253,
"longitude": -77.7042
},
{
"icao": "CYGM",
"iata": "YGM",
"name": "Gimli Industrial Park Airport",
"city": "Gimli",
"country": "Canada",
"latitude": 50.6281,
"longitude": -97.0433
},
{
"icao": "CYGO",
"iata": "YGO",
"name": "Gods Lake Narrows Airport",
"city": "Gods Lake Narrows",
"country": "Canada",
"latitude": 54.5589,
"longitude": -94.4914
},
{
"icao": "CYGP",
"iata": "YGP",
"name": "Gaspe (Michel-Pouliot) Airport",
"city": "Gaspe",
"country": "Canada",
"latitude": 48.7753,
"longitude": -64.4786
},
{
"icao": "CYGQ",
"iata": "YGQ",
"name": "Geraldton Greenstone Regional Airport",
"city": "Geraldton",
"country": "Canada",
"latitude": 49.7783,
"longitude": -86.9394
},
{
"icao": "CYGR",
"iata": "YGR",
"name": "Iles-de-la-Madeleine Airport",
"city": "Iles-de-la-Madeleine",
"country": "Canada",
"latitude": 47.4247,
"longitude": -61.7781
},
{
"icao": "CYGT",
"iata": "YGT",
"name": "Igloolik Airport",
"city": "Igloolik",
"country": "Canada",
"latitude": 69.3647,
"longitude": -81.8161
},
{
"icao": "CYGV",
"iata": "YGV",
"name": "Havre St Pierre Airport",
"city": "Havre St-Pierre",
"country": "Canada",
"latitude": 50.2819,
"longitude": -63.6114
},
{
"icao": "CYGW",
"iata": "YGW",
"name": "Kuujjuarapik Airport",
"city": "Kuujjuarapik",
"country": "Canada",
"latitude": 55.2819,
"longitude": -77.7653
},
{
"icao": "CYGX",
"iata": "YGX",
"name": "Gillam Airport",
"city": "Gillam",
"country": "Canada",
"latitude": 56.3575,
"longitude": -94.7106
},
{
"icao": "CYGZ",
"iata": "YGZ",
"name": "Grise Fiord Airport",
"city": "Grise Fiord",
"country": "Canada",
"latitude": 76.4261,
"longitude": -82.9092
},
{
"icao": "CYHA",
"iata": "YQC",
"name": "Quaqtaq Airport",
"city": "Quaqtaq",
"country": "Canada",
"latitude": 61.0464,
"longitude": -69.6178
},
{
"icao": "CYHB",
"iata": "YHB",
"name": "Hudson Bay Airport",
"city": "Hudson Bay",
"country": "Canada",
"latitude": 52.8167,
"longitude": -102.311
},
{
"icao": "CYHC",
"iata": "CXH",
"name": "Vancouver Harbour Airport",
"city": "Vancouver",
"country": "Canada",
"latitude": 49.28333,
"longitude": -123.1
},
{
"icao": "CYHD",
"iata": "YHD",
"name": "Dryden Regional Airport",
"city": "Dryden",
"country": "Canada",
"latitude": 49.8317,
"longitude": -92.7442
},
{
"icao": "CYHE",
"iata": "YHE",
"name": "Hope Airport",
"city": "Hope",
"country": "Canada",
"latitude": 49.3683,
"longitude": -121.498
},
{
"icao": "CYHF",
"iata": "YHF",
"name": "Hearst Rene Fontaine Municipal Airport",
"city": "Hearst",
"country": "Canada",
"latitude": 49.7142,
"longitude": -83.6861
},
{
"icao": "CYHH",
"iata": "YNS",
"name": "Nemiscau Airport",
"city": "Nemiscau",
"country": "Canada",
"latitude": 51.6911,
"longitude": -76.1356
},
{
"icao": "CYHI",
"iata": "YHI",
"name": "Ulukhaktok Holman Airport",
"city": "Ulukhaktok",
"country": "Canada",
"latitude": 70.7628,
"longitude": -117.806
},
{
"icao": "CYHK",
"iata": "YHK",
"name": "Gjoa Haven Airport",
"city": "Gjoa Haven",
"country": "Canada",
"latitude": 68.6356,
"longitude": -95.8497
},
{
"icao": "CYHM",
"iata": "YHM",
"name": "John C. Munro Hamilton International Airport",
"city": "Hamilton",
"country": "Canada",
"latitude": 43.1736,
"longitude": -79.935
},
{
"icao": "CYHN",
"iata": "YHN",
"name": "Hornepayne Municipal Airport",
"city": "Hornepayne",
"country": "Canada",
"latitude": 49.1931,
"longitude": -84.7589
},
{
"icao": "CYHO",
"iata": "YHO",
"name": "Hopedale Airport",
"city": "Hopedale",
"country": "Canada",
"latitude": 55.4483,
"longitude": -60.2286
},
{
"icao": "CYHR",
"iata": "YHR",
"name": "Chevery Airport",
"city": "Chevery",
"country": "Canada",
"latitude": 50.4689,
"longitude": -59.6367
},
{
"icao": "CYHT",
"iata": "YHT",
"name": "Haines Junction Airport",
"city": "Haines Junction",
"country": "Canada",
"latitude": 60.7892,
"longitude": -137.54601
},
{
"icao": "CYHU",
"iata": "YHU",
"name": "Montréal / St-Hubert Airport",
"city": "Longueuil",
"country": "Canada",
"latitude": 45.5175,
"longitude": -73.4169
},
{
"icao": "CYHY",
"iata": "YHY",
"name": "Hay River / Merlyn Carter Airport",
"city": "Hay River",
"country": "Canada",
"latitude": 60.8397,
"longitude": -115.783
},
{
"icao": "CYHZ",
"iata": "YHZ",
"name": "Halifax Robert L. Stanfield International Airport",
"city": "Halifax",
"country": "Canada",
"latitude": 44.8808,
"longitude": -63.5086
},
{
"icao": "CYIB",
"iata": "YIB",
"name": "Atikokan Municipal Airport",
"city": "Atikokan",
"country": "Canada",
"latitude": 48.7739,
"longitude": -91.6386
},
{
"icao": "CYID",
"iata": "YDG",
"name": "Digby / Annapolis Regional Airport",
"city": "Digby",
"country": "Canada",
"latitude": 44.54585,
"longitude": -65.78542
},
{
"icao": "CYIF",
"iata": "YIF",
"name": "St Augustin Airport",
"city": "St-Augustin",
"country": "Canada",
"latitude": 51.2117,
"longitude": -58.6583
},
{
"icao": "CYIK",
"iata": "YIK",
"name": "Ivujivik Airport",
"city": "Ivujivik",
"country": "Canada",
"latitude": 62.4173,
"longitude": -77.9253
},
{
"icao": "CYIO",
"iata": "YIO",
"name": "Pond Inlet Airport",
"city": "Pond Inlet",
"country": "Canada",
"latitude": 72.6833,
"longitude": -77.9667
},
{
"icao": "CYIV",
"iata": "YIV",
"name": "Island Lake Airport",
"city": "Island Lake",
"country": "Canada",
"latitude": 53.8572,
"longitude": -94.6536
},
{
"icao": "CYJA",
"iata": "YJA",
"name": "Jasper Airport",
"city": "Jasper",
"country": "Canada",
"latitude": 52.9967,
"longitude": -118.059
},
{
"icao": "CYJF",
"iata": "YJF",
"name": "Fort Liard Airport",
"city": "Fort Liard",
"country": "Canada",
"latitude": 60.2358,
"longitude": -123.469
},
{
"icao": "CYJN",
"iata": "YJN",
"name": "St-Jean Airport",
"city": "Saint Jean",
"country": "Canada",
"latitude": 45.2944,
"longitude": -73.2811
},
{
"icao": "CYJT",
"iata": "YJT",
"name": "Stephenville Airport",
"city": "Stephenville",
"country": "Canada",
"latitude": 48.5442,
"longitude": -58.55
},
{
"icao": "CYKA",
"iata": "YKA",
"name": "Kamloops Airport",
"city": "Kamloops",
"country": "Canada",
"latitude": 50.7022,
"longitude": -120.444
},
{
"icao": "CYKC",
"iata": "YKC",
"name": "Collins Bay Airport",
"city": "Collins Bay",
"country": "Canada",
"latitude": 58.2361,
"longitude": -103.678
},
{
"icao": "CYKD",
"iata": "LAK",
"name": "Aklavik Airport",
"city": "Aklavik",
"country": "Canada",
"latitude": 68.2233,
"longitude": -135.006
},
{
"icao": "CYKF",
"iata": "YKF",
"name": "Kitchener / Waterloo Airport",
"city": "Waterloo",
"country": "Canada",
"latitude": 43.4608,
"longitude": -80.3786
},
{
"icao": "CYKG",
"iata": "YWB",
"name": "Kangiqsujuaq (Wakeham Bay) Airport",
"city": "Kangiqsujuaq",
"country": "Canada",
"latitude": 61.5886,
"longitude": -71.9294
},
{
"icao": "CYKJ",
"iata": "YKJ",
"name": "Key Lake Airport",
"city": "Key Lake",
"country": "Canada",
"latitude": 57.2561,
"longitude": -105.618
},
{
"icao": "CYKL",
"iata": "YKL",
"name": "Schefferville Airport",
"city": "Schefferville",
"country": "Canada",
"latitude": 54.8053,
"longitude": -66.8053
},
{
"icao": "CYKO",
"iata": "AKV",
"name": "Akulivik Airport",
"city": "Akulivik",
"country": "Canada",
"latitude": 60.8186,
"longitude": -78.1486
},
{
"icao": "CYKQ",
"iata": "YKQ",
"name": "Waskaganish Airport",
"city": "Waskaganish",
"country": "Canada",
"latitude": 51.4733,
"longitude": -78.7583
},
{
"icao": "CYKX",
"iata": "YKX",
"name": "Kirkland Lake Airport",
"city": "Kirkland Lake",
"country": "Canada",
"latitude": 48.2103,
"longitude": -79.9814
},
{
"icao": "CYKY",
"iata": "YKY",
"name": "Kindersley Airport",
"city": "Kindersley",
"country": "Canada",
"latitude": 51.5175,
"longitude": -109.181
},
{
"icao": "CYLA",
"iata": "YPJ",
"name": "Aupaluk Airport",
"city": "Aupaluk",
"country": "Canada",
"latitude": 59.2967,
"longitude": -69.5997
},
{
"icao": "CYLB",
"iata": "YLB",
"name": "Lac La Biche Airport",
"city": "Lac La Biche",
"country": "Canada",
"latitude": 54.7703,
"longitude": -112.032
},
{
"icao": "CYLC",
"iata": "YLC",
"name": "Kimmirut Airport",
"city": "Kimmirut",
"country": "Canada",
"latitude": 62.85,
"longitude": -69.8833
},
{
"icao": "CYLD",
"iata": "YLD",
"name": "Chapleau Airport",
"city": "Chapleau",
"country": "Canada",
"latitude": 47.82,
"longitude": -83.3467
},
{
"icao": "CYLH",
"iata": "YLH",
"name": "Lansdowne House Airport",
"city": "Lansdowne House",
"country": "Canada",
"latitude": 52.1956,
"longitude": -87.9342
},
{
"icao": "CYLJ",
"iata": "YLJ",
"name": "Meadow Lake Airport",
"city": "Meadow Lake",
"country": "Canada",
"latitude": 54.1253,
"longitude": -108.523
},
{
"icao": "CYLK",
"iata": "YSG",
"name": "Lutselk'e Airport",
"city": "Lutselk'e",
"country": "Canada",
"latitude": 62.4183,
"longitude": -110.682
},
{
"icao": "CYLL",
"iata": "YLL",
"name": "Lloydminster Airport",
"city": "Lloydminster",
"country": "Canada",
"latitude": 53.3092,
"longitude": -110.073
},
{
"icao": "CYLQ",
"iata": "YLQ",
"name": "La Tuque Airport",
"city": "La Tuque",
"country": "Canada",
"latitude": 47.4097,
"longitude": -72.7889
},
{
"icao": "CYLR",
"iata": "YLR",
"name": "Leaf Rapids Airport",
"city": "Leaf Rapids",
"country": "Canada",
"latitude": 56.5133,
"longitude": -99.9853
},
{
"icao": "CYLS",
"iata": "YLK",
"name": "Barrie-Orillia (Lake Simcoe Regional Airport)",
"city": "Barrie-Orillia",
"country": "Canada",
"latitude": 44.4853,
"longitude": -79.5556
},
{
"icao": "CYLT",
"iata": "YLT",
"name": "Alert Airport",
"city": "Alert",
"country": "Canada",
"latitude": 82.5178,
"longitude": -62.2806
},
{
"icao": "CYLU",
"iata": "XGR",
"name": "Kangiqsualujjuaq (Georges River) Airport",
"city": "Kangiqsualujjuaq",
"country": "Canada",
"latitude": 58.7114,
"longitude": -65.9928
},
{
"icao": "CYLW",
"iata": "YLW",
"name": "Kelowna Airport",
"city": "Kelowna",
"country": "Canada",
"latitude": 49.9561,
"longitude": -119.378
},
{
"icao": "CYMA",
"iata": "YMA",
"name": "Mayo Airport",
"city": "Mayo",
"country": "Canada",
"latitude": 63.6164,
"longitude": -135.868
},
{
"icao": "CYME",
"iata": "YME",
"name": "Matane Airport",
"city": "Matane",
"country": "Canada",
"latitude": 48.8569,
"longitude": -67.4533
},
{
"icao": "CYMG",
"iata": "YMG",
"name": "Manitouwadge Airport",
"city": "Manitouwadge",
"country": "Canada",
"latitude": 49.0839,
"longitude": -85.8606
},
{
"icao": "CYMH",
"iata": "YMH",
"name": "Mary's Harbour Airport",
"city": "Mary's Harbour",
"country": "Canada",
"latitude": 52.3028,
"longitude": -55.8472
},
{
"icao": "CYMJ",
"iata": "YMJ",
"name": "Moose Jaw Air Vice Marshal C. M. McEwen Airport",
"city": "Moose Jaw",
"country": "Canada",
"latitude": 50.3303,
"longitude": -105.559
},
{
"icao": "CYML",
"iata": "YML",
"name": "Charlevoix Airport",
"city": "Charlevoix",
"country": "Canada",
"latitude": 47.5975,
"longitude": -70.2239
},
{
"icao": "CYMM",
"iata": "YMM",
"name": "Fort McMurray Airport",
"city": "Fort McMurray",
"country": "Canada",
"latitude": 56.6533,
"longitude": -111.222
},
{
"icao": "CYMO",
"iata": "YMO",
"name": "Moosonee Airport",
"city": "Moosonee",
"country": "Canada",
"latitude": 51.2911,
"longitude": -80.6078
},
{
"icao": "CYMT",
"iata": "YMT",
"name": "Chapais Airport",
"city": "Chibougamau",
"country": "Canada",
"latitude": 49.7719,
"longitude": -74.5281
},
{
"icao": "CYMU",
"iata": "YUD",
"name": "Umiujaq Airport",
"city": "Umiujaq",
"country": "Canada",
"latitude": 56.5361,
"longitude": -76.5183
},
{
"icao": "CYMW",
"iata": "YMW",
"name": "Maniwaki Airport",
"city": "Maniwaki",
"country": "Canada",
"latitude": 46.2728,
"longitude": -75.9906
},
{
"icao": "CYMX",
"iata": "YMX",
"name": "Montréal (Mirabel) Airport",
"city": "Mirabel",
"country": "Canada",
"latitude": 45.6795,
"longitude": -74.0387
},
{
"icao": "CYNA",
"iata": "YNA",
"name": "Natashquan Airport",
"city": "Natashquan",
"country": "Canada",
"latitude": 50.19,
"longitude": -61.7892
},
{
"icao": "CYNC",
"iata": "YNC",
"name": "Wemindji Airport",
"city": "Wemindji",
"country": "Canada",
"latitude": 53.0106,
"longitude": -78.8311
},
{
"icao": "CYND",
"iata": "YND",
"name": "Ottawa / Gatineau Airport",
"city": "Gatineau",
"country": "Canada",
"latitude": 45.5217,
"longitude": -75.5636
},
{
"icao": "CYNE",
"iata": "YNE",
"name": "Norway House Airport",
"city": "Norway House",
"country": "Canada",
"latitude": 53.9583,
"longitude": -97.8442
},
{
"icao": "CYNH",
"iata": "YNH",
"name": "Hudsons Hope Airport",
"city": "Hudson's Hope",
"country": "Canada",
"latitude": 56.0356,
"longitude": -121.976
},
{
"icao": "CYNJ",
"iata": "YLY",
"name": "Langley Airport",
"city": "Langley",
"country": "Canada",
"latitude": 49.1008,
"longitude": -122.631
},
{
"icao": "CYNL",
"iata": "YNL",
"name": "Points North Landing Airport",
"city": "Points North Landing",
"country": "Canada",
"latitude": 58.2767,
"longitude": -104.082
},
{
"icao": "CYNM",
"iata": "YNM",
"name": "Matagami Airport",
"city": "Matagami",
"country": "Canada",
"latitude": 49.7617,
"longitude": -77.8028
},
{
"icao": "CYNN",
"iata": "YNN",
"name": "Nejanilini Lake Airport",
"city": "Nejanilini Lake",
"country": "Canada",
"latitude": 59.4875,
"longitude": -97.7803
},
{
"icao": "CYNR",
"iata": "HZP",
"name": "Fort Mackay / Horizon Airport",
"city": "Fort Mackay",
"country": "Canada",
"latitude": 57.3817,
"longitude": -111.701
},
{
"icao": "CYOA",
"iata": "YOA",
"name": "Ekati Airport",
"city": "Ekati",
"country": "Canada",
"latitude": 64.6989,
"longitude": -110.615
},
{
"icao": "CYOC",
"iata": "YOC",
"name": "Old Crow Airport",
"city": "Old Crow",
"country": "Canada",
"latitude": 67.5706,
"longitude": -139.839
},
{
"icao": "CYOD",
"iata": "YOD",
"name": "CFB Cold Lake",
"city": "Cold Lake",
"country": "Canada",
"latitude": 54.405,
"longitude": -110.279
},
{
"icao": "CYOH",
"iata": "YOH",
"name": "Oxford House Airport",
"city": "Oxford House",
"country": "Canada",
"latitude": 54.9333,
"longitude": -95.2789
},
{
"icao": "CYOJ",
"iata": "YOJ",
"name": "High Level Airport",
"city": "High Level",
"country": "Canada",
"latitude": 58.6214,
"longitude": -117.165
},
{
"icao": "CYOO",
"iata": "YOO",
"name": "Oshawa Airport",
"city": "Oshawa",
"country": "Canada",
"latitude": 43.9228,
"longitude": -78.895
},
{
"icao": "CYOP",
"iata": "YOP",
"name": "Rainbow Lake Airport",
"city": "Rainbow Lake",
"country": "Canada",
"latitude": 58.4914,
"longitude": -119.408
},
{
"icao": "CYOS",
"iata": "YOS",
"name": "Owen Sound / Billy Bishop Regional Airport",
"city": "Owen Sound",
"country": "Canada",
"latitude": 44.5903,
"longitude": -80.8375
},
{
"icao": "CYOW",
"iata": "YOW",
"name": "Ottawa / Macdonald-Cartier International Airport",
"city": "Ottawa",
"country": "Canada",
"latitude": 45.3225,
"longitude": -75.6692
},
{
"icao": "CYPA",
"iata": "YPA",
"name": "Prince Albert (Glass Field) Airport",
"city": "Prince Albert",
"country": "Canada",
"latitude": 53.2142,
"longitude": -105.673
},
{
"icao": "CYPC",
"iata": "YPC",
"name": "Paulatuk (Nora Aliqatchialuk Ruben) Airport",
"city": "Paulatuk",
"country": "Canada",
"latitude": 69.36084,
"longitude": -124.07547
},
{
"icao": "CYPD",
"iata": "YPS",
"name": "Port Hawkesbury Airport",
"city": "Port Hawkesbury",
"country": "Canada",
"latitude": 45.6567,
"longitude": -61.3681
},
{
"icao": "CYPE",
"iata": "YPE",
"name": "Peace River Airport",
"city": "Peace River",
"country": "Canada",
"latitude": 56.2269,
"longitude": -117.447
},
{
"icao": "CYPG",
"iata": "YPG",
"name": "Southport Airport",
"city": "Portage",
"country": "Canada",
"latitude": 49.9031,
"longitude": -98.2739
},
{
"icao": "CYPH",
"iata": "YPH",
"name": "Inukjuak Airport",
"city": "Inukjuak",
"country": "Canada",
"latitude": 58.4719,
"longitude": -78.0769
},
{
"icao": "CYPK",
"iata": "YPK",
"name": "Pitt Meadows Airport",
"city": "Pitt Meadows",
"country": "Canada",
"latitude": 49.2161,
"longitude": -122.71
},
{
"icao": "CYPL",
"iata": "YPL",
"name": "Pickle Lake Airport",
"city": "Pickle Lake",
"country": "Canada",
"latitude": 51.4464,
"longitude": -90.2142
},
{
"icao": "CYPM",
"iata": "YPM",
"name": "Pikangikum Airport",
"city": "Pikangikum",
"country": "Canada",
"latitude": 51.8197,
"longitude": -93.9733
},
{
"icao": "CYPN",
"iata": "YPN",
"name": "Port Menier Airport",
"city": "Port-Menier",
"country": "Canada",
"latitude": 49.8364,
"longitude": -64.2886
},
{
"icao": "CYPO",
"iata": "YPO",
"name": "Peawanuck Airport",
"city": "Peawanuck",
"country": "Canada",
"latitude": 54.9881,
"longitude": -85.4433
},
{
"icao": "CYPQ",
"iata": "YPQ",
"name": "Peterborough Airport",
"city": "Peterborough",
"country": "Canada",
"latitude": 44.23,
"longitude": -78.3633
},
{
"icao": "CYPR",
"iata": "YPR",
"name": "Prince Rupert Airport",
"city": "Prince Rupert",
"country": "Canada",
"latitude": 54.2861,
"longitude": -130.44501
},
{
"icao": "CYPW",
"iata": "YPW",
"name": "Powell River Airport",
"city": "Powell River",
"country": "Canada",
"latitude": 49.8342,
"longitude": -124.5
},
{
"icao": "CYPX",
"iata": "YPX",
"name": "Puvirnituq Airport",
"city": "Puvirnituq",
"country": "Canada",
"latitude": 60.0506,
"longitude": -77.2869
},
{
"icao": "CYPY",
"iata": "YPY",
"name": "Fort Chipewyan Airport",
"city": "Fort Chipewyan",
"country": "Canada",
"latitude": 58.7672,
"longitude": -111.117
},
{
"icao": "CYPZ",
"iata": "YPZ",
"name": "Burns Lake Airport",
"city": "Burns Lake",
"country": "Canada",
"latitude": 54.3764,
"longitude": -125.951
},
{
"icao": "CYQA",
"iata": "YQA",
"name": "Muskoka Airport",
"city": "Muskoka",
"country": "Canada",
"latitude": 44.9747,
"longitude": -79.3033
},
{
"icao": "CYQB",
"iata": "YQB",
"name": "Québec City Jean Lesage International Airport",
"city": "Quebec City",
"country": "Canada",
"latitude": 46.7911,
"longitude": -71.3933
},
{
"icao": "CYQD",
"iata": "YQD",
"name": "The Pas Airport",
"city": "The Pas",
"country": "Canada",
"latitude": 53.9714,
"longitude": -101.091
},
{
"icao": "CYQF",
"iata": "YQF",
"name": "Red Deer Regional Airport",
"city": "Red Deer",
"country": "Canada",
"latitude": 52.1822,
"longitude": -113.894
},
{
"icao": "CYQG",
"iata": "YQG",
"name": "Windsor Airport",
"city": "Windsor",
"country": "Canada",
"latitude": 42.2756,
"longitude": -82.9556
},
{
"icao": "CYQH",
"iata": "YQH",
"name": "Watson Lake Airport",
"city": "Watson Lake",
"country": "Canada",
"latitude": 60.1164,
"longitude": -128.82201
},
{
"icao": "CYQI",
"iata": "YQI",
"name": "Yarmouth Airport",
"city": "Yarmouth",
"country": "Canada",
"latitude": 43.8269,
"longitude": -66.0881
},
{
"icao": "CYQK",
"iata": "YQK",
"name": "Kenora Airport",
"city": "Kenora",
"country": "Canada",
"latitude": 49.7883,
"longitude": -94.3631
},
{
"icao": "CYQL",
"iata": "YQL",
"name": "Lethbridge Airport",
"city": "Lethbridge",
"country": "Canada",
"latitude": 49.6303,
"longitude": -112.8
},
{
"icao": "CYQM",
"iata": "YQM",
"name": "Moncton / Greater Moncton International Airport",
"city": "Moncton",
"country": "Canada",
"latitude": 46.1122,
"longitude": -64.6786
},
{
"icao": "CYQN",
"iata": "YQN",
"name": "Nakina Airport",
"city": "Nakina",
"country": "Canada",
"latitude": 50.1828,
"longitude": -86.6964
},
{
"icao": "CYQQ",
"iata": "YQQ",
"name": "Comox Airport",
"city": "Comox",
"country": "Canada",
"latitude": 49.7108,
"longitude": -124.887
},
{
"icao": "CYQR",
"iata": "YQR",
"name": "Regina International Airport",
"city": "Regina",
"country": "Canada",
"latitude": 50.4319,
"longitude": -104.666
},
{
"icao": "CYQS",
"iata": "YQS",
"name": "St Thomas Municipal Airport",
"city": "St Thomas",
"country": "Canada",
"latitude": 42.77,
"longitude": -81.1108
},
{
"icao": "CYQT",
"iata": "YQT",
"name": "Thunder Bay Airport",
"city": "Thunder Bay",
"country": "Canada",
"latitude": 48.3719,
"longitude": -89.3239
},
{
"icao": "CYQU",
"iata": "YQU",
"name": "Grande Prairie Airport",
"city": "Grande Prairie",
"country": "Canada",
"latitude": 55.1797,
"longitude": -118.885
},
{
"icao": "CYQV",
"iata": "YQV",
"name": "Yorkton Municipal Airport",
"city": "Yorkton",
"country": "Canada",
"latitude": 51.2647,
"longitude": -102.462
},
{
"icao": "CYQW",
"iata": "YQW",
"name": "North Battleford Airport",
"city": "North Battleford",
"country": "Canada",
"latitude": 52.7692,
"longitude": -108.244
},
{
"icao": "CYQX",
"iata": "YQX",
"name": "Gander International Airport",
"city": "Gander",
"country": "Canada",
"latitude": 48.9369,
"longitude": -54.5681
},
{
"icao": "CYQY",
"iata": "YQY",
"name": "Sydney / J.A. Douglas McCurdy Airport",
"city": "Sydney",
"country": "Canada",
"latitude": 46.1614,
"longitude": -60.0478
},
{
"icao": "CYQZ",
"iata": "YQZ",
"name": "Quesnel Airport",
"city": "Quesnel",
"country": "Canada",
"latitude": 53.0261,
"longitude": -122.51
},
{
"icao": "CYRA",
"iata": "YRA",
"name": "Rae Lakes Airport",
"city": "Gameti",
"country": "Canada",
"latitude": 64.1161,
"longitude": -117.31
},
{
"icao": "CYRB",
"iata": "YRB",
"name": "Resolute Bay Airport",
"city": "Resolute Bay",
"country": "Canada",
"latitude": 74.7169,
"longitude": -94.9694
},
{
"icao": "CYRI",
"iata": "YRI",
"name": "Riviere-du-Loup Airport",
"city": "Riviere-du-Loup",
"country": "Canada",
"latitude": 47.7644,
"longitude": -69.5847
},
{
"icao": "CYRJ",
"iata": "YRJ",
"name": "Roberval Airport",
"city": "Roberval",
"country": "Canada",
"latitude": 48.52,
"longitude": -72.2656
},
{
"icao": "CYRL",
"iata": "YRL",
"name": "Red Lake Airport",
"city": "Red Lake",
"country": "Canada",
"latitude": 51.0669,
"longitude": -93.7931
},
{
"icao": "CYRM",
"iata": "YRM",
"name": "Rocky Mountain House Airport",
"city": "Rocky Mountain House",
"country": "Canada",
"latitude": 52.4297,
"longitude": -114.904
},
{
"icao": "CYRO",
"iata": "YRO",
"name": "Ottawa / Rockcliffe Airport",
"city": "Ottawa",
"country": "Canada",
"latitude": 45.4603,
"longitude": -75.6461
},
{
"icao": "CYRQ",
"iata": "YRQ",
"name": "Trois-Rivieres Airport",
"city": "Trois-Rivieres",
"country": "Canada",
"latitude": 46.3528,
"longitude": -72.6794
},
{
"icao": "CYRS",
"iata": "YRS",
"name": "Red Sucker Lake Airport",
"city": "Red Sucker Lake",
"country": "Canada",
"latitude": 54.1672,
"longitude": -93.5572
},
{
"icao": "CYRT",
"iata": "YRT",
"name": "Rankin Inlet Airport",
"city": "Rankin Inlet",
"country": "Canada",
"latitude": 62.8114,
"longitude": -92.1158
},
{
"icao": "CYRV",
"iata": "YRV",
"name": "Revelstoke Airport",
"city": "Revelstoke",
"country": "Canada",
"latitude": 50.9667,
"longitude": -118.183
},
{
"icao": "CYSB",
"iata": "YSB",
"name": "Sudbury Airport",
"city": "Falconbridge",
"country": "Canada",
"latitude": 46.625,
"longitude": -80.7989
},
{
"icao": "CYSC",
"iata": "YSC",
"name": "Sherbrooke Airport",
"city": "Sherbrooke",
"country": "Canada",
"latitude": 45.4386,
"longitude": -71.6914
},
{
"icao": "CYSE",
"iata": "YSE",
"name": "Squamish Airport",
"city": "Squamish",
"country": "Canada",
"latitude": 49.7817,
"longitude": -123.162
},
{
"icao": "CYSF",
"iata": "YSF",
"name": "Stony Rapids Airport",
"city": "Stony Rapids",
"country": "Canada",
"latitude": 59.2503,
"longitude": -105.841
},
{
"icao": "CYSH",
"iata": "YSH",
"name": "Smiths Falls-Montague (Russ Beach) Airport",
"city": "Smiths Falls",
"country": "Canada",
"latitude": 44.9458,
"longitude": -75.9406
},
{
"icao": "CYSJ",
"iata": "YSJ",
"name": "Saint John Airport",
"city": "Saint John",
"country": "Canada",
"latitude": 45.3161,
"longitude": -65.8903
},
{
"icao": "CYSK",
"iata": "YSK",
"name": "Sanikiluaq Airport",
"city": "Sanikiluaq",
"country": "Canada",
"latitude": 56.5378,
"longitude": -79.2467
},
{
"icao": "CYSL",
"iata": "YSL",
"name": "St Leonard Airport",
"city": "St Leonard",
"country": "Canada",
"latitude": 47.1575,
"longitude": -67.8347
},
{
"icao": "CYSM",
"iata": "YSM",
"name": "Fort Smith Airport",
"city": "Fort Smith",
"country": "Canada",
"latitude": 60.0203,
"longitude": -111.962
},
{
"icao": "CYSN",
"iata": "YCM",
"name": "St. Catharines Niagara District Airport",
"city": "Niagara-on-the-lake",
"country": "Canada",
"latitude": 43.1917,
"longitude": -79.1717
},
{
"icao": "CYSP",
"iata": "YSP",
"name": "Marathon Airport",
"city": "Marathon",
"country": "Canada",
"latitude": 48.7553,
"longitude": -86.3444
},
{
"icao": "CYST",
"iata": "YST",
"name": "St. Theresa Point Airport",
"city": "St. Theresa Point",
"country": "Canada",
"latitude": 53.8456,
"longitude": -94.8519
},
{
"icao": "CYSU",
"iata": "YSU",
"name": "Summerside Airport",
"city": "Summerside",
"country": "Canada",
"latitude": 46.4406,
"longitude": -63.8336
},
{
"icao": "CYSY",
"iata": "YSY",
"name": "Sachs Harbour (David Nasogaluak Jr. Saaryuaq) Airport",
"city": "Sachs Harbour",
"country": "Canada",
"latitude": 71.9939,
"longitude": -125.243
},
{
"icao": "CYTA",
"iata": "YTA",
"name": "Pembroke Airport",
"city": "Pembroke",
"country": "Canada",
"latitude": 45.8644,
"longitude": -77.2517
},
{
"icao": "CYTE",
"iata": "YTE",
"name": "Cape Dorset Airport",
"city": "Cape Dorset",
"country": "Canada",
"latitude": 64.23,
"longitude": -76.5267
},
{
"icao": "CYTF",
"iata": "YTF",
"name": "Alma Airport",
"city": "Alma",
"country": "Canada",
"latitude": 48.5089,
"longitude": -71.6419
},
{
"icao": "CYTH",
"iata": "YTH",
"name": "Thompson Airport",
"city": "Thompson",
"country": "Canada",
"latitude": 55.8011,
"longitude": -97.8642
},
{
"icao": "CYTL",
"iata": "YTL",
"name": "Big Trout Lake Airport",
"city": "Big Trout Lake",
"country": "Canada",
"latitude": 53.8178,
"longitude": -89.8969
},
{
"icao": "CYTQ",
"iata": "YTQ",
"name": "Tasiujaq Airport",
"city": "Tasiujaq",
"country": "Canada",
"latitude": 58.6678,
"longitude": -69.9558
},
{
"icao": "CYTR",
"iata": "YTR",
"name": "CFB Trenton",
"city": "Trenton",
"country": "Canada",
"latitude": 44.1189,
"longitude": -77.5281
},
{
"icao": "CYTS",
"iata": "YTS",
"name": "Timmins Victor M. Power Airport",
"city": "Timmins",
"country": "Canada",
"latitude": 48.5697,
"longitude": -81.3767
},
{
"icao": "CYTZ",
"iata": "YTZ",
"name": "Billy Bishop Toronto City Airport",
"city": "Toronto",
"country": "Canada",
"latitude": 43.6275,
"longitude": -79.3962
},
{
"icao": "CYUB",
"iata": "YUB",
"name": "Tuktoyaktuk Airport",
"city": "Tuktoyaktuk",
"country": "Canada",
"latitude": 69.4333,
"longitude": -133.026
},
{
"icao": "CYUL",
"iata": "YUL",
"name": "Montréal-Pierre Elliott Trudeau International Airport",
"city": "Dorval",
"country": "Canada",
"latitude": 45.4706,
"longitude": -73.7408
},
{
"icao": "CYUT",
"iata": "YUT",
"name": "Repulse Bay Airport",
"city": "Repulse Bay",
"country": "Canada",
"latitude": 66.5214,
"longitude": -86.2247
},
{
"icao": "CYUX",
"iata": "YUX",
"name": "Hall Beach Airport",
"city": "Hall Beach",
"country": "Canada",
"latitude": 68.7761,
"longitude": -81.2436
},
{
"icao": "CYUY",
"iata": "YUY",
"name": "Rouyn-Noranda Airport",
"city": "McWatters",
"country": "Canada",
"latitude": 48.2061,
"longitude": -78.8356
},
{
"icao": "CYVB",
"iata": "YVB",
"name": "Bonaventure Airport",
"city": "Bonaventure",
"country": "Canada",
"latitude": 48.0711,
"longitude": -65.4603
},
{
"icao": "CYVC",
"iata": "YVC",
"name": "La Ronge (Barber Field) Airport",
"city": "La Ronge",
"country": "Canada",
"latitude": 55.1514,
"longitude": -105.262
},
{
"icao": "CYVG",
"iata": "YVG",
"name": "Vermilion Airport",
"city": "Vermilion",
"country": "Canada",
"latitude": 53.3558,
"longitude": -110.824
},
{
"icao": "CYVK",
"iata": "YVE",
"name": "Vernon Airport",
"city": "Vernon",
"country": "Canada",
"latitude": 50.2481,
"longitude": -119.331
},
{
"icao": "CYVM",
"iata": "YVM",
"name": "Qikiqtarjuaq Airport",
"city": "Qikiqtarjuaq",
"country": "Canada",
"latitude": 67.5458,
"longitude": -64.0314
},
{
"icao": "CYVO",
"iata": "YVO",
"name": "Val-d'Or Airport",
"city": "Bourlamaque",
"country": "Canada",
"latitude": 48.0533,
"longitude": -77.7828
},
{
"icao": "CYVP",
"iata": "YVP",
"name": "Kuujjuaq Airport",
"city": "Kuujjuaq",
"country": "Canada",
"latitude": 58.0961,
"longitude": -68.4269
},
{
"icao": "CYVQ",
"iata": "YVQ",
"name": "Norman Wells Airport",
"city": "Norman Wells",
"country": "Canada",
"latitude": 65.2816,
"longitude": -126.798
},
{
"icao": "CYVR",
"iata": "YVR",
"name": "Vancouver International Airport",
"city": "Richmond",
"country": "Canada",
"latitude": 49.1939,
"longitude": -123.184
},
{
"icao": "CYVT",
"iata": "YVT",
"name": "Buffalo Narrows Airport",
"city": "Buffalo Narrows",
"country": "Canada",
"latitude": 55.8419,
"longitude": -108.418
},
{
"icao": "CYVV",
"iata": "YVV",
"name": "Wiarton Airport",
"city": "Wiarton",
"country": "Canada",
"latitude": 44.7458,
"longitude": -81.1072
},
{
"icao": "CYVZ",
"iata": "YVZ",
"name": "Deer Lake Airport",
"city": "Deer Lake",
"country": "Canada",
"latitude": 52.6558,
"longitude": -94.0614
},
{
"icao": "CYWA",
"iata": "YWA",
"name": "Petawawa Airport",
"city": "Petawawa",
"country": "Canada",
"latitude": 45.9522,
"longitude": -77.3192
},
{
"icao": "CYWE",
"iata": "YFJ",
"name": "Wekweeti Airport",
"city": "Wekweeti",
"country": "Canada",
"latitude": 64.1908,
"longitude": -114.077
},
{
"icao": "CYWG",
"iata": "YWG",
"name": "Winnipeg James Armstrong Richardson International Airport",
"city": "Winnipeg",
"country": "Canada",
"latitude": 49.91,
"longitude": -97.2399
},
{
"icao": "CYWH",
"iata": "YWH",
"name": "Victoria Harbour Airport",
"city": "Victoria",
"country": "Canada",
"latitude": 48.41667,
"longitude": -123.36667
},
{
"icao": "CYWJ",
"iata": "YWJ",
"name": "Deline Airport",
"city": "Deline",
"country": "Canada",
"latitude": 65.2111,
"longitude": -123.436
},
{
"icao": "CYWK",
"iata": "YWK",
"name": "Wabush Airport",
"city": "Wabush",
"country": "Canada",
"latitude": 52.9219,
"longitude": -66.8644
},
{
"icao": "CYWL",
"iata": "YWL",
"name": "Williams Lake Airport",
"city": "Williams Lake",
"country": "Canada",
"latitude": 52.1831,
"longitude": -122.054
},
{
"icao": "CYWP",
"iata": "YWP",
"name": "Webequie Airport",
"city": "Webequie",
"country": "Canada",
"latitude": 52.95939,
"longitude": -87.37487
},
{
"icao": "CYWY",
"iata": "YWY",
"name": "Wrigley Airport",
"city": "Wrigley",
"country": "Canada",
"latitude": 63.2094,
"longitude": -123.437
},
{
"icao": "CYXC",
"iata": "YXC",
"name": "Cranbrook / Canadian Rockies Airport",
"city": "Cranbrook",
"country": "Canada",
"latitude": 49.6108,
"longitude": -115.782
},
{
"icao": "CYXE",
"iata": "YXE",
"name": "Saskatoon John G. Diefenbaker International Airport",
"city": "Saskatoon",
"country": "Canada",
"latitude": 52.1708,
"longitude": -106.7
},
{
"icao": "CYXH",
"iata": "YXH",
"name": "Medicine Hat Airport",
"city": "Medicine Hat",
"country": "Canada",
"latitude": 50.0189,
"longitude": -110.721
},
{
"icao": "CYXJ",
"iata": "YXJ",
"name": "Fort St. John Airport",
"city": "Fort Saint John",
"country": "Canada",
"latitude": 56.2381,
"longitude": -120.74
},
{
"icao": "CYXK",
"iata": "YXK",
"name": "Rimouski Airport",
"city": "Rimouski",
"country": "Canada",
"latitude": 48.4781,
"longitude": -68.4969
},
{
"icao": "CYXL",
"iata": "YXL",
"name": "Sioux Lookout Airport",
"city": "Sioux Lookout",
"country": "Canada",
"latitude": 50.1139,
"longitude": -91.9053
},
{
"icao": "CYXN",
"iata": "YXN",
"name": "Whale Cove Airport",
"city": "Whale Cove",
"country": "Canada",
"latitude": 62.24,
"longitude": -92.5981
},
{
"icao": "CYXP",
"iata": "YXP",
"name": "Pangnirtung Airport",
"city": "Pangnirtung",
"country": "Canada",
"latitude": 66.145,
"longitude": -65.7136
},
{
"icao": "CYXQ",
"iata": "YXQ",
"name": "Beaver Creek Airport",
"city": "Beaver Creek",
"country": "Canada",
"latitude": 62.4103,
"longitude": -140.867
},
{
"icao": "CYXR",
"iata": "YXR",
"name": "Earlton (Timiskaming Regional) Airport",
"city": "Earlton",
"country": "Canada",
"latitude": 47.6974,
"longitude": -79.84735
},
{
"icao": "CYXS",
"iata": "YXS",
"name": "Prince George Airport",
"city": "Prince George",
"country": "Canada",
"latitude": 53.8894,
"longitude": -122.679
},
{
"icao": "CYXT",
"iata": "YXT",
"name": "Terrace Airport",
"city": "Terrace",
"country": "Canada",
"latitude": 54.4685,
"longitude": -128.576
},
{
"icao": "CYXU",
"iata": "YXU",
"name": "London Airport",
"city": "London",
"country": "Canada",
"latitude": 43.0356,
"longitude": -81.1539
},
{
"icao": "CYXX",
"iata": "YXX",
"name": "Abbotsford Airport",
"city": "Abbotsford",
"country": "Canada",
"latitude": 49.0253,
"longitude": -122.361
},
{
"icao": "CYXY",
"iata": "YXY",
"name": "Erik Nielsen Whitehorse International Airport",
"city": "Whitehorse",
"country": "Canada",
"latitude": 60.7096,
"longitude": -135.067
},
{
"icao": "CYXZ",
"iata": "YXZ",
"name": "Wawa Airport",
"city": "Wawa",
"country": "Canada",
"latitude": 47.9667,
"longitude": -84.7867
},
{
"icao": "CYYB",
"iata": "YYB",
"name": "North Bay Airport",
"city": "North Bay",
"country": "Canada",
"latitude": 46.3636,
"longitude": -79.4228
},
{
"icao": "CYYC",
"iata": "YYC",
"name": "Calgary International Airport",
"city": "Calgary",
"country": "Canada",
"latitude": 51.1139,
"longitude": -114.02
},
{
"icao": "CYYD",
"iata": "YYD",
"name": "Smithers Airport",
"city": "Smithers",
"country": "Canada",
"latitude": 54.8247,
"longitude": -127.183
},
{
"icao": "CYYE",
"iata": "YYE",
"name": "Fort Nelson Airport",
"city": "Fort Nelson",
"country": "Canada",
"latitude": 58.8364,
"longitude": -122.597
},
{
"icao": "CYYF",
"iata": "YYF",
"name": "Penticton Airport",
"city": "Penticton",
"country": "Canada",
"latitude": 49.4631,
"longitude": -119.602
},
{
"icao": "CYYG",
"iata": "YYG",
"name": "Charlottetown Airport",
"city": "Charlottetown",
"country": "Canada",
"latitude": 46.29,
"longitude": -63.1211
},
{
"icao": "CYYH",
"iata": "YYH",
"name": "Taloyoak Airport",
"city": "Taloyoak",
"country": "Canada",
"latitude": 69.5467,
"longitude": -93.5767
},
{
"icao": "CYYJ",
"iata": "YYJ",
"name": "Victoria International Airport",
"city": "Victoria",
"country": "Canada",
"latitude": 48.6469,
"longitude": -123.426
},
{
"icao": "CYYL",
"iata": "YYL",
"name": "Lynn Lake Airport",
"city": "Lynn Lake",
"country": "Canada",
"latitude": 56.8639,
"longitude": -101.076
},
{
"icao": "CYYM",
"iata": "YYM",
"name": "Cowley Airport",
"city": "Cowley",
"country": "Canada",
"latitude": 49.6364,
"longitude": -114.094
},
{
"icao": "CYYN",
"iata": "YYN",
"name": "Swift Current Airport",
"city": "Swift Current",
"country": "Canada",
"latitude": 50.2919,
"longitude": -107.691
},
{
"icao": "CYYQ",
"iata": "YYQ",
"name": "Churchill Airport",
"city": "Churchill",
"country": "Canada",
"latitude": 58.7392,
"longitude": -94.065
},
{
"icao": "CYYR",
"iata": "YYR",
"name": "Goose Bay Airport",
"city": "Goose Bay",
"country": "Canada",
"latitude": 53.3192,
"longitude": -60.4258
},
{
"icao": "CYYT",
"iata": "YYT",
"name": "St. John's International Airport",
"city": "Saint John",
"country": "Canada",
"latitude": 47.6186,
"longitude": -52.7519
},
{
"icao": "CYYU",
"iata": "YYU",
"name": "Kapuskasing Airport",
"city": "Kapuskasing",
"country": "Canada",
"latitude": 49.4139,
"longitude": -82.4675
},
{
"icao": "CYYW",
"iata": "YYW",
"name": "Armstrong Airport",
"city": "Armstrong",
"country": "Canada",
"latitude": 50.2903,
"longitude": -88.9097
},
{
"icao": "CYYY",
"iata": "YYY",
"name": "Mont-Joli Airport",
"city": "Mont Jolie",
"country": "Canada",
"latitude": 48.6086,
"longitude": -68.2081
},
{
"icao": "CYYZ",
"iata": "YYZ",
"name": "Toronto Pearson International Airport",
"city": "Mississauga",
"country": "Canada",
"latitude": 43.6772,
"longitude": -79.6306
},
{
"icao": "CYZE",
"iata": "YZE",
"name": "Gore Bay Manitoulin Airport",
"city": "Gore Bay",
"country": "Canada",
"latitude": 45.8853,
"longitude": -82.5678
},
{
"icao": "CYZF",
"iata": "YZF",
"name": "Yellowknife Airport",
"city": "Yellowknife",
"country": "Canada",
"latitude": 62.4628,
"longitude": -114.44
},
{
"icao": "CYZG",
"iata": "YZG",
"name": "Salluit Airport",
"city": "Salluit",
"country": "Canada",
"latitude": 62.1794,
"longitude": -75.6672
},
{
"icao": "CYZH",
"iata": "YZH",
"name": "Slave Lake Airport",
"city": "Slave Lake",
"country": "Canada",
"latitude": 55.2931,
"longitude": -114.777
},
{
"icao": "CYZP",
"iata": "YZP",
"name": "Sandspit Airport",
"city": "Sandspit",
"country": "Canada",
"latitude": 53.2543,
"longitude": -131.814
},
{
"icao": "CYZR",
"iata": "YZR",
"name": "Chris Hadfield Airport",
"city": "Sarnia",
"country": "Canada",
"latitude": 42.9994,
"longitude": -82.3089
},
{
"icao": "CYZS",
"iata": "YZS",
"name": "Coral Harbour Airport",
"city": "Coral Harbour",
"country": "Canada",
"latitude": 64.1933,
"longitude": -83.3594
},
{
"icao": "CYZT",
"iata": "YZT",
"name": "Port Hardy Airport",
"city": "Port Hardy",
"country": "Canada",
"latitude": 50.6806,
"longitude": -127.367
},
{
"icao": "CYZU",
"iata": "YZU",
"name": "Whitecourt Airport",
"city": "Whitecourt",
"country": "Canada",
"latitude": 54.1439,
"longitude": -115.787
},
{
"icao": "CYZV",
"iata": "YZV",
"name": "Sept-Iles Airport",
"city": "Sept-Iles",
"country": "Canada",
"latitude": 50.2233,
"longitude": -66.2656
},
{
"icao": "CYZW",
"iata": "YZW",
"name": "Teslin Airport",
"city": "Teslin",
"country": "Canada",
"latitude": 60.1728,
"longitude": -132.743
},
{
"icao": "CYZX",
"iata": "YZX",
"name": "CFB Greenwood",
"city": "Greenwood",
"country": "Canada",
"latitude": 44.9844,
"longitude": -64.9169
},
{
"icao": "CZAC",
"iata": "ZAC",
"name": "York Landing Airport",
"city": "York Landing",
"country": "Canada",
"latitude": 56.0894,
"longitude": -96.0892
},
{
"icao": "CZAM",
"iata": "YSN",
"name": "Salmon Arm Airport",
"city": "Salmon Arm",
"country": "Canada",
"latitude": 50.6828,
"longitude": -119.229
},
{
"icao": "CZBB",
"iata": "YDT",
"name": "Boundary Bay Airport",
"city": "Ladner",
"country": "Canada",
"latitude": 49.0742,
"longitude": -123.012
},
{
"icao": "CZBD",
"iata": "ILF",
"name": "Ilford Airport",
"city": "Ilford",
"country": "Canada",
"latitude": 56.0614,
"longitude": -95.6139
},
{
"icao": "CZBF",
"iata": "ZBF",
"name": "Bathurst Airport",
"city": "Bathurst",
"country": "Canada",
"latitude": 47.6297,
"longitude": -65.7389
},
{
"icao": "CZBM",
"iata": "ZBM",
"name": "Bromont (Roland Desourdy) Airport",
"city": "Bromont",
"country": "Canada",
"latitude": 45.2908,
"longitude": -72.7414
},
{
"icao": "CZEE",
"iata": "KES",
"name": "Kelsey Airport",
"city": "Kelsey",
"country": "Canada",
"latitude": 56.0375,
"longitude": -96.5097
},
{
"icao": "CZEM",
"iata": "ZEM",
"name": "Eastmain River Airport",
"city": "Eastmain River",
"country": "Canada",
"latitude": 52.2264,
"longitude": -78.5225
},
{
"icao": "CZFA",
"iata": "ZFA",
"name": "Faro Airport",
"city": "Faro",
"country": "Canada",
"latitude": 62.2075,
"longitude": -133.37601
},
{
"icao": "CZFD",
"iata": "ZFD",
"name": "Fond-Du-Lac Airport",
"city": "Fond-Du-Lac",
"country": "Canada",
"latitude": 59.3344,
"longitude": -107.182
},
{
"icao": "CZFG",
"iata": "XPK",
"name": "Pukatawagan Airport",
"city": "Pukatawagan",
"country": "Canada",
"latitude": 55.7492,
"longitude": -101.266
},
{
"icao": "CZFM",
"iata": "ZFM",
"name": "Fort Mcpherson Airport",
"city": "Fort Mcpherson",
"country": "Canada",
"latitude": 67.4075,
"longitude": -134.86099
},
{
"icao": "CZFN",
"iata": "ZFN",
"name": "Tulita Airport",
"city": "Tulita",
"country": "Canada",
"latitude": 64.9097,
"longitude": -125.573
},
{
"icao": "CZGF",
"iata": "ZGF",
"name": "Grand Forks Airport",
"city": "Grand Forks",
"country": "Canada",
"latitude": 49.0156,
"longitude": -118.431
},
{
"icao": "CZGI",
"iata": "ZGI",
"name": "Gods River Airport",
"city": "Gods River",
"country": "Canada",
"latitude": 54.8397,
"longitude": -94.0786
},
{
"icao": "CZGR",
"iata": "ZGR",
"name": "Little Grand Rapids Airport",
"city": "Little Grand Rapids",
"country": "Canada",
"latitude": 52.0456,
"longitude": -95.4658
},
{
"icao": "CZHP",
"iata": "ZHP",
"name": "High Prairie Airport",
"city": "High Prairie",
"country": "Canada",
"latitude": 55.3936,
"longitude": -116.475
},
{
"icao": "CZJG",
"iata": "ZJG",
"name": "Jenpeg Airport",
"city": "Jenpeg",
"country": "Canada",
"latitude": 54.5189,
"longitude": -98.0461
},
{
"icao": "CZJN",
"iata": "ZJN",
"name": "Swan River Airport",
"city": "Swan River",
"country": "Canada",
"latitude": 52.1206,
"longitude": -101.236
},
{
"icao": "CZKE",
"iata": "ZKE",
"name": "Kashechewan Airport",
"city": "Kashechewan",
"country": "Canada",
"latitude": 52.2825,
"longitude": -81.6778
},
{
"icao": "CZLQ",
"iata": "YTD",
"name": "Thicket Portage Airport",
"city": "Thicket Portage",
"country": "Canada",
"latitude": 55.3189,
"longitude": -97.7078
},
{
"icao": "CZMD",
"iata": "MSA",
"name": "Muskrat Dam Airport",
"city": "Muskrat Dam",
"country": "Canada",
"latitude": 53.4414,
"longitude": -91.7628
},
{
"icao": "CZML",
"iata": "ZMH",
"name": "South Cariboo Region / 108 Mile Airport",
"city": "108 Mile",
"country": "Canada",
"latitude": 51.7361,
"longitude": -121.333
},
{
"icao": "CZMN",
"iata": "PIW",
"name": "Pikwitonei Airport",
"city": "Pikwitonei",
"country": "Canada",
"latitude": 55.5889,
"longitude": -97.1642
},
{
"icao": "CZMT",
"iata": "ZMT",
"name": "Masset Airport",
"city": "Masset",
"country": "Canada",
"latitude": 54.0275,
"longitude": -132.125
},
{
"icao": "CZNG",
"iata": "XPP",
"name": "Poplar River Airport",
"city": "Poplar River",
"country": "Canada",
"latitude": 53.0,
"longitude": -97.2667
},
{
"icao": "CZPB",
"iata": "ZPB",
"name": "Sachigo Lake Airport",
"city": "Sachigo Lake",
"country": "Canada",
"latitude": 53.8911,
"longitude": -92.1964
},
{
"icao": "CZPC",
"iata": "WPC",
"name": "Pincher Creek Airport",
"city": "Pincher Creek",
"country": "Canada",
"latitude": 49.5206,
"longitude": -113.997
},
{
"icao": "CZPO",
"iata": "ZPO",
"name": "Pinehouse Lake Airport",
"city": "Pinehouse Lake",
"country": "Canada",
"latitude": 55.5281,
"longitude": -106.582
},
{
"icao": "CZRJ",
"iata": "ZRJ",
"name": "Round Lake (Weagamow Lake) Airport",
"city": "Round Lake",
"country": "Canada",
"latitude": 52.9436,
"longitude": -91.3128
},
{
"icao": "CZSJ",
"iata": "ZSJ",
"name": "Sandy Lake Airport",
"city": "Sandy Lake",
"country": "Canada",
"latitude": 53.0642,
"longitude": -93.3444
},
{
"icao": "CZSN",
"iata": "XSI",
"name": "South Indian Lake Airport",
"city": "South Indian Lake",
"country": "Canada",
"latitude": 56.7928,
"longitude": -98.9072
},
{
"icao": "CZST",
"iata": "ZST",
"name": "Stewart Airport",
"city": "Stewart",
"country": "Canada",
"latitude": 55.93541,
"longitude": -129.98243
},
{
"icao": "CZTA",
"iata": "YDV",
"name": "Bloodvein River Airport",
"city": "Bloodvein River",
"country": "Canada",
"latitude": 51.7833,
"longitude": -96.7
},
{
"icao": "CZTM",
"iata": "ZTM",
"name": "Shamattawa Airport",
"city": "Shamattawa",
"country": "Canada",
"latitude": 55.8656,
"longitude": -92.0814
},
{
"icao": "CZUC",
"iata": "ZUC",
"name": "Ignace Municipal Airport",
"city": "Ignace",
"country": "Canada",
"latitude": 49.4297,
"longitude": -91.7178
},
{
"icao": "CZUM",
"iata": "ZUM",
"name": "Churchill Falls Airport",
"city": "Churchill Falls",
"country": "Canada",
"latitude": 53.5619,
"longitude": -64.1064
},
{
"icao": "CZWH",
"iata": "XLB",
"name": "Lac Brochet Airport",
"city": "Lac Brochet",
"country": "Canada",
"latitude": 58.6175,
"longitude": -101.469
},
{
"icao": "CZWL",
"iata": "ZWL",
"name": "Wollaston Lake Airport",
"city": "Wollaston Lake",
"country": "Canada",
"latitude": 58.1069,
"longitude": -103.172
},
{
"icao": "DAAD",
"iata": "BUJ",
"name": "Bou Saada Airport",
"city": "M'Sila",
"country": "Algeria",
"latitude": 35.3325,
"longitude": 4.20639
},
{
"icao": "DAAE",
"iata": "BJA",
"name": "Soummam Airport",
"city": "Bejaia",
"country": "Algeria",
"latitude": 36.712,
"longitude": 5.06992
},
{
"icao": "DAAG",
"iata": "ALG",
"name": "Houari Boumediene Airport",
"city": "Algiers",
"country": "Algeria",
"latitude": 36.691,
"longitude": 3.21541
},
{
"icao": "DAAJ",
"iata": "DJG",
"name": "Djanet Inedbirene Airport",
"city": "Djanet",
"country": "Algeria",
"latitude": 24.2928,
"longitude": 9.45244
},
{
"icao": "DAAP",
"iata": "VVZ",
"name": "Illizi Takhamalt Airport",
"city": "Illizi",
"country": "Algeria",
"latitude": 26.7235,
"longitude": 8.62265
},
{
"icao": "DAAS",
"iata": "QSF",
"name": "Ain Arnat Airport",
"city": "Setif",
"country": "Algeria",
"latitude": 36.1781,
"longitude": 5.32449
},
{
"icao": "DAAT",
"iata": "TMR",
"name": "Aguenar – Hadj Bey Akhamok Airport",
"city": "Tamanrasset",
"country": "Algeria",
"latitude": 22.8115,
"longitude": 5.45108
},
{
"icao": "DAAV",
"iata": "GJL",
"name": "Jijel Ferhat Abbas Airport",
"city": "Jijel",
"country": "Algeria",
"latitude": 36.7951,
"longitude": 5.87361
},
{
"icao": "DAAY",
"iata": "MZW",
"name": "Mecheria Airport",
"city": "Mecheria",
"country": "Algeria",
"latitude": 33.5359,
"longitude": -0.24235
},
{
"icao": "DABB",
"iata": "AAE",
"name": "Annaba Airport",
"city": "Annabah",
"country": "Algeria",
"latitude": 36.8222,
"longitude": 7.80917
},
{
"icao": "DABC",
"iata": "CZL",
"name": "Mohamed Boudiaf International Airport",
"city": "Constantine",
"country": "Algeria",
"latitude": 36.276,
"longitude": 6.62039
},
{
"icao": "DABS",
"iata": "TEE",
"name": "Cheikh Larbi Tebessi Airport",
"city": "Tebessi",
"country": "Algeria",
"latitude": 35.4316,
"longitude": 8.12072
},
{
"icao": "DABT",
"iata": "BLJ",
"name": "Batna Airport",
"city": "Batna",
"country": "Algeria",
"latitude": 35.7521,
"longitude": 6.30859
},
{
"icao": "DAFH",
"iata": "HRM",
"name": "Hassi R'Mel Airport",
"city": "Laghouat",
"country": "Algeria",
"latitude": 32.9304,
"longitude": 3.31154
},
{
"icao": "DAOB",
"iata": "TID",
"name": "Bou Chekif Airport",
"city": "Tiaret",
"country": "Algeria",
"latitude": 35.3411,
"longitude": 1.46315
},
{
"icao": "DAOF",
"iata": "TIN",
"name": "Tindouf Airport",
"city": "Tindouf",
"country": "Algeria",
"latitude": 27.7004,
"longitude": -8.1671
},
{
"icao": "DAOI",
"iata": "CFK",
"name": "Chlef Aboubakr Belkaid Airport",
"city": "Chlef",
"country": "Algeria",
"latitude": 36.216828,
"longitude": 1.340739
},
{
"icao": "DAOL",
"iata": "TAF",
"name": "Tafaraoui Airport",
"city": "Oran",
"country": "Algeria",
"latitude": 35.5424,
"longitude": -0.53228
},
{
"icao": "DAON",
"iata": "TLM",
"name": "Zenata – Messali El Hadj Airport",
"city": "Tlemcen",
"country": "Algeria",
"latitude": 35.0167,
"longitude": -1.45
},
{
"icao": "DAOO",
"iata": "ORN",
"name": "Es Senia Airport",
"city": "Oran",
"country": "Algeria",
"latitude": 35.6239,
"longitude": -0.62118
},
{
"icao": "DAOR",
"iata": "CBH",
"name": "Bechar Boudghene Ben Ali Lotfi Airport",
"city": "Bechar",
"country": "Algeria",
"latitude": 31.6457,
"longitude": -2.26986
},
{
"icao": "DAOS",
"iata": "BFW",
"name": "Sidi Bel Abbes Airport",
"city": "Sidi-Bel-Abbes",
"country": "Algeria",
"latitude": 35.1718,
"longitude": -0.59328
},
{
"icao": "DAOV",
"iata": "MUW",
"name": "Ghriss Airport",
"city": "Mascara",
"country": "Algeria",
"latitude": 35.2077,
"longitude": 0.14714
},
{
"icao": "DAOY",
"iata": "EBH",
"name": "El Bayadh Airport",
"city": "El Bayadh",
"country": "Algeria",
"latitude": 33.72167,
"longitude": 1.0925
},
{
"icao": "DATG",
"iata": "INF",
"name": "In Guezzam Airport",
"city": "In Guezzam",
"country": "Algeria",
"latitude": 19.567,
"longitude": 5.75
},
{
"icao": "DATM",
"iata": "BMW",
"name": "Bordj Badji Mokhtar Airport",
"city": "Bordj Badji Mokhtar",
"country": "Algeria",
"latitude": 21.375,
"longitude": 0.92389
},
{
"icao": "DAUA",
"iata": "AZR",
"name": "Touat Cheikh Sidi Mohamed Belkebir Airport",
"city": "Adrar",
"country": "Algeria",
"latitude": 27.8376,
"longitude": -0.18641
},
{
"icao": "DAUB",
"iata": "BSK",
"name": "Biskra Airport",
"city": "Biskra",
"country": "Algeria",
"latitude": 34.7933,
"longitude": 5.73823
},
{
"icao": "DAUE",
"iata": "ELG",
"name": "El Golea Airport",
"city": "Ghardaia",
"country": "Algeria",
"latitude": 30.5713,
"longitude": 2.85959
},
{
"icao": "DAUG",
"iata": "GHA",
"name": "Noumerat - Moufdi Zakaria Airport",
"city": "Ghardaia",
"country": "Algeria",
"latitude": 32.3841,
"longitude": 3.79411
},
{
"icao": "DAUH",
"iata": "HME",
"name": "Oued Irara Airport",
"city": "Hassi Messaoud",
"country": "Algeria",
"latitude": 31.673,
"longitude": 6.14044
},
{
"icao": "DAUI",
"iata": "INZ",
"name": "In Salah Airport",
"city": "In Salah",
"country": "Algeria",
"latitude": 27.251,
"longitude": 2.51202
},
{
"icao": "DAUK",
"iata": "TGR",
"name": "Touggourt Sidi Madhi Airport",
"city": "Touggourt",
"country": "Algeria",
"latitude": 33.0678,
"longitude": 6.08867
},
{
"icao": "DAUL",
"iata": "LOO",
"name": "Laghouat Airport",
"city": "Laghouat",
"country": "Algeria",
"latitude": 33.7644,
"longitude": 2.92834
},
{
"icao": "DAUO",
"iata": "ELU",
"name": "Guemar Airport",
"city": "Guemar",
"country": "Algeria",
"latitude": 33.5114,
"longitude": 6.77679
},
{
"icao": "DAUT",
"iata": "TMX",
"name": "Timimoun Airport",
"city": "Timimoun",
"country": "Algeria",
"latitude": 29.2371,
"longitude": 0.27603
},
{
"icao": "DAUU",
"iata": "OGX",
"name": "Ain el Beida Airport",
"city": "Ouargla",
"country": "Algeria",
"latitude": 31.9172,
"longitude": 5.41278
},
{
"icao": "DAUZ",
"iata": "IAM",
"name": "In Amenas Airport",
"city": "Amenas",
"country": "Algeria",
"latitude": 28.0515,
"longitude": 9.64291
},
{
"icao": "DBBB",
"iata": "COO",
"name": "Cadjehoun Airport",
"city": "Cotonou",
"country": "Benin",
"latitude": 6.35723,
"longitude": 2.38435
},
{
"icao": "DBBD",
"iata": "DJA",
"name": "Djougou Airport",
"city": "Djougou",
"country": "Benin",
"latitude": 9.69208,
"longitude": 1.63778
},
{
"icao": "DBBK",
"iata": "KDC",
"name": "Kandi Airport",
"city": "Kandi",
"country": "Benin",
"latitude": 11.133,
"longitude": 2.933
},
{
"icao": "DBBN",
"iata": "NAE",
"name": "Natitingou Airport",
"city": "Natitingou",
"country": "Benin",
"latitude": 10.317,
"longitude": 1.383
},
{
"icao": "DBBP",
"iata": "PKO",
"name": "Parakou Airport",
"city": "Parakou",
"country": "Benin",
"latitude": 9.35769,
"longitude": 2.60968
},
{
"icao": "DBBS",
"iata": "SVF",
"name": "Save Airport",
"city": "Save",
"country": "Benin",
"latitude": 8.01817,
"longitude": 2.46458
},
{
"icao": "DFCA",
"iata": "XKY",
"name": "Kaya Airport",
"city": "Kaya",
"country": "Burkina Faso",
"latitude": 13.067,
"longitude": -1.1
},
{
"icao": "DFCC",
"iata": "OUG",
"name": "Ouahigouya Airport",
"city": "Ouahigouya",
"country": "Burkina Faso",
"latitude": 13.567,
"longitude": -2.417
},
{
"icao": "DFCJ",
"iata": "XDJ",
"name": "Djibo Airport",
"city": "Djibo",
"country": "Burkina Faso",
"latitude": 14.1,
"longitude": -1.633
},
{
"icao": "DFCL",
"iata": "XLU",
"name": "Leo Airport",
"city": "Leo",
"country": "Burkina Faso",
"latitude": 11.1,
"longitude": -2.1
},
{
"icao": "DFCP",
"iata": "PUP",
"name": "Po Airport",
"city": "Po",
"country": "Burkina Faso",
"latitude": 11.15,
"longitude": -1.15
},
{
"icao": "DFEA",
"iata": "XBO",
"name": "Boulsa Airport",
"city": "Boulsa",
"country": "Burkina Faso",
"latitude": 12.65,
"longitude": -0.567
},
{
"icao": "DFEB",
"iata": "XBG",
"name": "Bogande Airport",
"city": "Bogande",
"country": "Burkina Faso",
"latitude": 12.983,
"longitude": -0.167
},
{
"icao": "DFED",
"iata": "DIP",
"name": "Diapaga Airport",
"city": "Diapaga",
"country": "Burkina Faso",
"latitude": 12.05,
"longitude": 1.783
},
{
"icao": "DFEE",
"iata": "DOR",
"name": "Dori Airport",
"city": "Dori",
"country": "Burkina Faso",
"latitude": 14.033,
"longitude": -0.033
},
{
"icao": "DFEF",
"iata": "FNG",
"name": "Fada N'gourma Airport",
"city": "Fada N'gourma",
"country": "Burkina Faso",
"latitude": 12.033,
"longitude": 0.35
},
{
"icao": "DFEG",
"iata": "XGG",
"name": "Gorom-Gorom Airport",
"city": "Gorom-Gorom",
"country": "Burkina Faso",
"latitude": 14.45,
"longitude": -0.233
},
{
"icao": "DFEL",
"iata": "XKA",
"name": "Kantchari Airport",
"city": "Kantchari",
"country": "Burkina Faso",
"latitude": 12.467,
"longitude": 1.5
},
{
"icao": "DFEM",
"iata": "TMQ",
"name": "Tambao Airport",
"city": "Tambao",
"country": "Burkina Faso",
"latitude": 14.8,
"longitude": 0.05
},
{
"icao": "DFEP",
"iata": "XPA",
"name": "Pama Airport",
"city": "Pama",
"country": "Burkina Faso",
"latitude": 11.25,
"longitude": 0.7
},
{
"icao": "DFER",
"iata": "ARL",
"name": "Arly Airport",
"city": "Arly",
"country": "Burkina Faso",
"latitude": 11.597,
"longitude": 1.483
},
{
"icao": "DFES",
"iata": "XSE",
"name": "Sebba Airport",
"city": "Sebba",
"country": "Burkina Faso",
"latitude": 13.45,
"longitude": 0.517
},
{
"icao": "DFET",
"iata": "TEG",
"name": "Tenkodogo Airport",
"city": "Tenkodogo",
"country": "Burkina Faso",
"latitude": 11.8,
"longitude": -0.367
},
{
"icao": "DFEZ",
"iata": "XZA",
"name": "Zabre Airport",
"city": "Zabre",
"country": "Burkina Faso",
"latitude": 11.167,
"longitude": -0.617
},
{
"icao": "DFFD",
"iata": "OUA",
"name": "Ouagadougou Airport",
"city": "Ouagadougou",
"country": "Burkina Faso",
"latitude": 12.3532,
"longitude": -1.51242
},
{
"icao": "DFOB",
"iata": "BNR",
"name": "Banfora Airport",
"city": "Banfora",
"country": "Burkina Faso",
"latitude": 10.683,
"longitude": -4.717
},
{
"icao": "DFOD",
"iata": "DGU",
"name": "Dedougou Airport",
"city": "Dedougou",
"country": "Burkina Faso",
"latitude": 12.459,
"longitude": -3.49
},
{
"icao": "DFOG",
"iata": "XGA",
"name": "Gaoua Airport",
"city": "Gaoua",
"country": "Burkina Faso",
"latitude": 10.2992,
"longitude": -3.25083
},
{
"icao": "DFON",
"iata": "XNU",
"name": "Nouna Airport",
"city": "Nouna",
"country": "Burkina Faso",
"latitude": 12.75,
"longitude": -3.867
},
{
"icao": "DFOO",
"iata": "BOY",
"name": "Bobo Dioulasso Airport",
"city": "Bobo Dioulasso",
"country": "Burkina Faso",
"latitude": 11.1601,
"longitude": -4.33097
},
{
"icao": "DFOT",
"iata": "TUQ",
"name": "Tougan Airport",
"city": "Tougan",
"country": "Burkina Faso",
"latitude": 13.067,
"longitude": -3.067
},
{
"icao": "DFOU",
"iata": "XDE",
"name": "Diebougou Airport",
"city": "Diebougou",
"country": "Burkina Faso",
"latitude": 10.95,
"longitude": -3.25
},
{
"icao": "DFOY",
"iata": "XAR",
"name": "Aribinda Airport",
"city": "Aribinda",
"country": "Burkina Faso",
"latitude": 14.217,
"longitude": -0.883
},
{
"icao": "DGAA",
"iata": "ACC",
"name": "Kotoka International Airport",
"city": "Accra",
"country": "Ghana",
"latitude": 5.60519,
"longitude": -0.16679
},
{
"icao": "DGLE",
"iata": "TML",
"name": "Tamale Airport",
"city": "Tamale",
"country": "Ghana",
"latitude": 9.55719,
"longitude": -0.86321
},
{
"icao": "DGLW",
"iata": "WZA",
"name": "Wa Airport",
"city": "Wa",
"country": "Ghana",
"latitude": 10.0827,
"longitude": -2.50769
},
{
"icao": "DGSI",
"iata": "KMS",
"name": "Kumasi Airport",
"city": "Kumasi",
"country": "Ghana",
"latitude": 6.71456,
"longitude": -1.59082
},
{
"icao": "DGSN",
"iata": "NYI",
"name": "Sunyani Airport",
"city": "Sunyani",
"country": "Ghana",
"latitude": 7.36183,
"longitude": -2.32876
},
{
"icao": "DGTK",
"iata": "TKD",
"name": "Takoradi Airport",
"city": "Sekondi-Takoradi",
"country": "Ghana",
"latitude": 4.89606,
"longitude": -1.77476
},
{
"icao": "DIAO",
"iata": "ABO",
"name": "Aboisso Airport",
"city": "Aboisso",
"country": "Côte d'Ivoire",
"latitude": 5.461944,
"longitude": -3.234722
},
{
"icao": "DIAP",
"iata": "ABJ",
"name": "Port Bouet Airport",
"city": "Abidjan",
"country": "Côte d'Ivoire",
"latitude": 5.26139,
"longitude": -3.92629
},
{
"icao": "DIAU",
"iata": "OGO",
"name": "Abengourou Airport",
"city": "Abengourou",
"country": "Côte d'Ivoire",
"latitude": 6.71556,
"longitude": -3.47028
},
{
"icao": "DIBI",
"iata": "BXI",
"name": "Boundiali Airport",
"city": "Boundiali",
"country": "Côte d'Ivoire",
"latitude": 9.533,
"longitude": -6.467
},
{
"icao": "DIBK",
"iata": "BYK",
"name": "Bouake Airport",
"city": "Vallee-du-Bandama",
"country": "Côte d'Ivoire",
"latitude": 7.7388,
"longitude": -5.07367
},
{
"icao": "DIBN",
"iata": "BQO",
"name": "Bouna Airport",
"city": "Bouna",
"country": "Côte d'Ivoire",
"latitude": 9.2775,
"longitude": -3.02528
},
{
"icao": "DIBU",
"iata": "BDK",
"name": "Soko Airport",
"city": "Bondoukou",
"country": "Côte d'Ivoire",
"latitude": 8.01722,
"longitude": -2.76194
},
{
"icao": "DIDK",
"iata": "DIM",
"name": "Dimbokro Airport",
"city": "Dimbokro",
"country": "Côte d'Ivoire",
"latitude": 6.65167,
"longitude": -4.64056
},
{
"icao": "DIDL",
"iata": "DJO",
"name": "Daloa Airport",
"city": "Sassandra-Marahoue",
"country": "Côte d'Ivoire",
"latitude": 6.79281,
"longitude": -6.47319
},
{
"icao": "DIFK",
"iata": "FEK",
"name": "Ferkessedougou Airport",
"city": "Ferkessedougou",
"country": "Côte d'Ivoire",
"latitude": 9.6,
"longitude": -5.2
},
{
"icao": "DIGA",
"iata": "GGN",
"name": "Gagnoa Airport",
"city": "Gagnoa",
"country": "Côte d'Ivoire",
"latitude": 6.133,
"longitude": -5.95
},
{
"icao": "DIGL",
"iata": "GGO",
"name": "Guiglo Airport",
"city": "Guiglo",
"country": "Côte d'Ivoire",
"latitude": 6.52499,
"longitude": -7.47861
},
{
"icao": "DIGN",
"iata": "BBV",
"name": "Nero-Mer Airport",
"city": "Grand-Bereby",
"country": "Côte d'Ivoire",
"latitude": 4.64341,
"longitude": -6.92396
},
{
"icao": "DIKO",
"iata": "HGO",
"name": "Korhogo Airport",
"city": "Savanes",
"country": "Côte d'Ivoire",
"latitude": 9.38718,
"longitude": -5.55666
},
{
"icao": "DIMN",
"iata": "MJC",
"name": "Man Airport",
"city": "Montagnes",
"country": "Côte d'Ivoire",
"latitude": 7.27207,
"longitude": -7.58736
},
{
"icao": "DIOD",
"iata": "KEO",
"name": "Odienne Airport",
"city": "Odienne",
"country": "Côte d'Ivoire",
"latitude": 9.5,
"longitude": -7.567
},
{
"icao": "DIOF",
"iata": "OFI",
"name": "Ouango Fitini Airport",
"city": "Ouango Fitini",
"country": "Côte d'Ivoire",
"latitude": 9.6,
"longitude": -4.05
},
{
"icao": "DISG",
"iata": "SEO",
"name": "Seguela Airport",
"city": "Seguela",
"country": "Côte d'Ivoire",
"latitude": 7.96833,
"longitude": -6.71083
},
{
"icao": "DISP",
"iata": "SPY",
"name": "San Pedro Airport",
"city": "Bas-Sassandra",
"country": "Côte d'Ivoire",
"latitude": 4.74672,
"longitude": -6.66082
},
{
"icao": "DISS",
"iata": "ZSS",
"name": "Sassandra Airport",
"city": "Sassandra",
"country": "Côte d'Ivoire",
"latitude": 4.92833,
"longitude": -6.13278
},
{
"icao": "DITB",
"iata": "TXU",
"name": "Tabou Airport",
"city": "Tabou",
"country": "Côte d'Ivoire",
"latitude": 4.43781,
"longitude": -7.36273
},
{
"icao": "DIYO",
"iata": "ASK",
"name": "Yamoussoukro Airport",
"city": "Yamoussoukro",
"country": "Côte d'Ivoire",
"latitude": 6.90317,
"longitude": -5.36558
},
{
"icao": "DNAA",
"iata": "ABV",
"name": "Nnamdi Azikiwe International Airport",
"city": "Abuja",
"country": "Nigeria",
"latitude": 9.00679,
"longitude": 7.26317
},
{
"icao": "DNAS",
"iata": "ABB",
"name": "Asaba International Airport",
"city": "Asaba",
"country": "Nigeria",
"latitude": 6.20333,
"longitude": 6.65889
},
{
"icao": "DNBE",
"iata": "BNI",
"name": "Benin Airport",
"city": "Benin",
"country": "Nigeria",
"latitude": 6.31698,
"longitude": 5.5995
},
{
"icao": "DNCA",
"iata": "CBQ",
"name": "Margaret Ekpo International Airport",
"city": "Calabar",
"country": "Nigeria",
"latitude": 4.97602,
"longitude": 8.3472
},
{
"icao": "DNEN",
"iata": "ENU",
"name": "Akanu Ibiam International Airport",
"city": "Enegu",
"country": "Nigeria",
"latitude": 6.47427,
"longitude": 7.56196
},
{
"icao": "DNGO",
"iata": "GMO",
"name": "Gombe Lawanti International Airport",
"city": "Gombe",
"country": "Nigeria",
"latitude": 10.29833,
"longitude": 10.89639
},
{
"icao": "DNIB",
"iata": "IBA",
"name": "Ibadan Airport",
"city": "Ibadan",
"country": "Nigeria",
"latitude": 7.36246,
"longitude": 3.97833
},
{
"icao": "DNIL",
"iata": "ILR",
"name": "Ilorin International Airport",
"city": "Ilorin",
"country": "Nigeria",
"latitude": 8.44021,
"longitude": 4.49392
},
{
"icao": "DNIM",
"iata": "QOW",
"name": "Sam Mbakwe International Airport",
"city": "Owerri",
"country": "Nigeria",
"latitude": 5.42706,
"longitude": 7.20603
},
{
"icao": "DNJO",
"iata": "JOS",
"name": "Yakubu Gowon Airport",
"city": "Jos",
"country": "Nigeria",
"latitude": 9.63983,
"longitude": 8.86905
},
{
"icao": "DNKA",
"iata": "KAD",
"name": "Kaduna Airport",
"city": "Kaduna",
"country": "Nigeria",
"latitude": 10.696,
"longitude": 7.32011
},
{
"icao": "DNKN",
"iata": "KAN",
"name": "Mallam Aminu International Airport",
"city": "Kano",
"country": "Nigeria",
"latitude": 12.0476,
"longitude": 8.52462
},
{
"icao": "DNMA",
"iata": "MIU",
"name": "Maiduguri International Airport",
"city": "Maiduguri",
"country": "Nigeria",
"latitude": 11.8553,
"longitude": 13.0809
},
{
"icao": "DNMK",
"iata": "MDI",
"name": "Makurdi Airport",
"city": "Makurdi",
"country": "Nigeria",
"latitude": 7.70388,
"longitude": 8.61394
},
{
"icao": "DNMM",
"iata": "LOS",
"name": "Murtala Muhammed International Airport",
"city": "Lagos",
"country": "Nigeria",
"latitude": 6.57737,
"longitude": 3.32116
},
{
"icao": "DNMN",
"iata": "MXJ",
"name": "Minna Airport",
"city": "Minna",
"country": "Nigeria",
"latitude": 9.65217,
"longitude": 6.46226
},
{
"icao": "DNPO",
"iata": "PHC",
"name": "Port Harcourt International Airport",
"city": "Port Harcourt",
"country": "Nigeria",
"latitude": 5.01549,
"longitude": 6.94959
},
{
"icao": "DNSO",
"iata": "SKO",
"name": "Sadiq Abubakar III International Airport",
"city": "Sokoto",
"country": "Nigeria",
"latitude": 12.9163,
"longitude": 5.20719
},
{
"icao": "DNYO",
"iata": "YOL",
"name": "Yola Airport",
"city": "Yola",
"country": "Nigeria",
"latitude": 9.25755,
"longitude": 12.4304
},